name,place_id,formatted_address,latitude,longitude,rating,user_ratings_total,website,phone_number,search_query,search_location,category,planning_area,weighted_average_income,total_households,has_website,has_phone,has_rating,search_coverage
Marina Bay Link Mall,ChIJHXaCig4Z2jER6U4Qy8aX7Co,"8A Marina Blvd, Singapore 018984",1.2795303,103.8543391,4.3,3723,http://www.marinabaylink.com.sg/,6634 0888,fitness_center,"Marina Bay, Singapore",Fitness Studio,DOWNTOWN CORE,14925.66,1350.0,True,True,True,Local
UFIT CBD Hub - Club Street,ChIJ7_pADQ0Z2jERo9Kux8Y9MSs,"21 Club St, #01-01, Singapore 069410",1.2824769,103.8466987,4.9,445,https://www.ufit.com.sg/locations/clubstreet,6225 5059,fitness_center,"Chinatown, Singapore",Fitness Studio,OUTRAM,9371.743688254664,5466.0,True,True,True,Local
Kampong Glam Community Club,ChIJq6qqcrEZ2jERtJYskj9TJiA,"385 Beach Rd, Singapore 199581",1.3029472,103.8635062,4.1,361,https://www.onepa.gov.sg/cc/kampong-glam-cc,6295 0741,fitness_center,"Kampong Glam, Singapore",Fitness Studio,KALLANG,10084.228177543,31046.0,True,True,True,Local
Heartbeat @ Bedok ActiveSG Swimming Complex,ChIJ1xgTQ7Ui2jERqLDkdtiHQl8,"11 Bedok North Street 1, Singapore 469662",1.3271175,103.9322493,4.4,4064,https://www.activesgcircle.gov.sg/facilities/heartbeat-bedok-activesg-swimming-complex,6443 5511,fitness_center,"Bedok, Singapore",Fitness Studio,BEDOK,10710.615373350993,78532.0,True,True,True,Local
Bedok Community Centre,ChIJbfCQErUi2jERUUI_vMAxZ5g,"850 New Upper Changi Rd, Singapore 467352",1.3243238,103.9359818,4.2,1414,,6442 5317,fitness_center,"Bedok, Singapore",Fitness Studio,BEDOK,10710.615373350993,78532.0,False,True,True,Local
Woodlands Sports Centre (ActiveSG),ChIJV5hnA6wT2jERqD4CwNu0SpM,"2 Woodlands Street 12, Singapore 738599",1.434104,103.779798,4.1,2049,https://www.activesgcircle.gov.sg/facilities/woodlands-sport-centre,6269 4192,fitness_center,"Woodlands, Singapore",Fitness Studio,WOODLANDS,9184.241848443537,70416.0,True,True,True,Local
Sembawang Community Club,ChIJi3j7l5sU2jEROGUByFjhrSM,"117B Canberra Cres, #01-370, Singapore 752117",1.4514788,103.828856,4.1,446,http://go.gov.sg/sembcentral,6752 7212,fitness_center,"Sembawang, Singapore",Fitness Studio,SEMBAWANG,9856.022017546808,29749.0,True,True,True,Local
ActiveSG Sports Centre,ChIJTSDLM50U2jERQoCxNiUI-VY,"21 Canberra Link, Singapore 756973",1.4488628,103.8236134,0.0,0,https://www.activesgcircle.gov.sg/facilities?page=1&type=1,6374 5342,fitness_center,"Sembawang, Singapore",Fitness Studio,SEMBAWANG,9856.022017546808,29749.0,True,True,False,Local
Yishun Fit Club,ChIJdYxrO24U2jERja657FDF61c,"757 Yishun Street 72, Block 757, Singapore 760757",1.4265841,103.8340538,1.0,1,http://www.fitclub.sg/fitclub_locations/,9383 8656,fitness_center,"Yishun, Singapore",Fitness Studio,YISHUN,9019.018663760686,65153.0,True,True,True,Local
ActiveSG Sports Centre,ChIJ7RoekQ8U2jERDK4JtndMOWY,"101 Yishun Ave 1, Singapore 769130",1.411809,103.831229,5.0,1,https://www.activesgcircle.gov.sg/facilities?page=1&type=1,6756 7416,fitness_center,"Yishun, Singapore",Fitness Studio,YISHUN,9019.018663760686,65153.0,True,True,True,Local
Ang Mo Kio Community Centre,ChIJezqw494W2jERiMgKkfS_nVc,"795 Ang Mo Kio Ave 1, Singapore 569976",1.3668579,103.8407909,4.1,387,https://www.onepa.gov.sg/cc/ang-mo-kio-cc,6452 9644,fitness_center,"Ang Mo Kio, Singapore",Fitness Studio,ANG MO KIO,9398.25493644068,47200.0,True,True,True,Local
Bishan ActiveSG Sports Centre,ChIJCX6pHhoX2jERDmIqgb3RhuY,"5 Bishan St 14, Singapore 579783",1.3555048,103.8509503,4.1,14,https://www.myactivesg.com/facilities/bishan-sports-centre,6352 6631,fitness_center,"Bishan, Singapore",Fitness Studio,BISHAN,12483.410944381014,24524.0,True,True,True,Local
Bishan Community Club,ChIJ____7xMX2jERWYaeX5Kpxcw,"51 Bishan St. 13, Singapore 579799",1.3497251,103.8507226,4.2,1597,https://www.onepa.gov.sg/cc/bishan-cc,6259 4720,fitness_center,"Bishan, Singapore",Fitness Studio,BISHAN,12483.410944381014,24524.0,True,True,True,Local
Bishan Sports and Recreation Centre,ChIJx7bZHBoX2jER-hecDyx4avo,"5 Bishan St 14, Singapore 579783",1.3552839,103.8508785,3.8,12,https://www.myactivesg.com/facilities/bishan-sports-centre,6353 9235,fitness_center,"Bishan, Singapore",Fitness Studio,BISHAN,12483.410944381014,24524.0,True,True,True,Local
Hougang Community Club,ChIJAQAASDUW2jERRfi8_uLQm-g,"35 Hougang Ave 3, Singapore 538840",1.364645,103.8923352,4.3,1105,,6282 8887,fitness_center,"Hougang, Singapore",Fitness Studio,HOUGANG,10153.063186096142,65133.0,False,True,True,Local
Sengkang ActiveSG Sports Centre,ChIJ7UrY8HMW2jER3ouFYG5edII,"57 Anchorvale Rd, Singapore 544964",1.3967848,103.886901,4.3,2318,https://www.activesgcircle.gov.sg/facilities/sengkang-sport-centre,6315 3574,fitness_center,"Sengkang, Singapore",Fitness Studio,SENGKANG,10549.841220784238,72478.0,True,True,True,Local
ActiveSG Jurong East Sports Centre,ChIJ2XCvCiAQ2jERNcw38Db6v5w,"21 Jurong East Street 31, Singapore 609517",1.346998,103.729109,4.2,942,https://www.activesgcircle.gov.sg/facilities/jurong-east-sport-centre,6563 5052,fitness_center,"Jurong East, Singapore",Fitness Studio,TENGAH,0.0,0.0,True,True,True,Local
Jurong West ActiveSG Sports Centre,ChIJEwW7gpoP2jER4o0mrMTZddM,"20 Jurong West Street 93, Singapore 648965",1.3378059,103.6941925,4.3,1833,https://www.activesgcircle.gov.sg/facilities/jurong-west-sport-centre,6515 5332,fitness_center,"Jurong West, Singapore",Fitness Studio,JURONG WEST,9632.399985216842,74409.0,True,True,True,Local
Afterburner @ Temasek Club,ChIJvy3q_7kR2jERi765mrWsVN4,"131 Rifle Range Rd, Singapore 588396",1.3466744,103.7807581,4.3,6,http://www.temasekclub.org.sg/sports/gym,6801 4242,fitness_center,"Bukit Panjang, Singapore",Fitness Studio,BUKIT PANJANG,10223.16462037638,38525.0,True,True,True,Local
Bukit Panjang Community Club,ChIJJWt786YR2jERcIgIkdUxv_0,"8 Pending Rd, Singapore 678295",1.3765799,103.770559,4.1,936,https://m.facebook.com/bukitpanjangcc/,6506 0900,fitness_center,"Bukit Panjang, Singapore",Fitness Studio,BUKIT PANJANG,10223.16462037638,38525.0,True,True,True,Local
Senja-Cashew Community Club,ChIJs45bbr0R2jERwByR91EdWqw,"101 Bukit Panjang Rd, Singapore 679910",1.381403,103.764651,4.3,1238,https://www.onepa.gov.sg/cc/senja-cashew-cc,6219 4561,fitness_center,"Bukit Panjang, Singapore",Fitness Studio,CHOA CHU KANG,10535.758835482462,52657.0,True,True,True,Local
Choa Chu Kang ActiveSG Sports Centre,ChIJ_WX9ue0R2jER865IJyACAoc,"1 Choa Chu Kang Street 53, Singapore 689236",1.3910416,103.7481531,4.1,916,https://www.activesgcircle.gov.sg/facilities/choa-chu-kang-sport-centre,6767 1735,fitness_center,"Choa Chu Kang, Singapore",Fitness Studio,CHOA CHU KANG,10535.758835482462,52657.0,True,True,True,Local
Clementi ActiveSG Sports Centre,ChIJgRNCmI0a2jERsaiX0wOxGlE,"518 Clementi Ave 3, Singapore 129907",1.311074,103.765017,4.1,457,https://www.activesgcircle.gov.sg/facilities/clementi-sport-centre,6776 2560,fitness_center,"Clementi, Singapore",Fitness Studio,CLEMENTI,11191.556927093045,26815.0,True,True,True,Local
Clementi ActiveSG Swimming Complex,ChIJI-DMoY0a2jERfwouQaKgsSQ,"520 Clementi Ave 3, Singapore 129908",1.3107809,103.7656508,4.2,567,https://www.activesgcircle.gov.sg/facilities/clementi-swimming-complex,6779 0577,fitness_center,"Clementi, Singapore",Fitness Studio,CLEMENTI,11191.556927093045,26815.0,True,True,True,Local
Queenstown Community Centre,ChIJd579PQUEBBARwgdz6iK21hE,"365 Commonwealth Ave, Singapore 149732",1.2988065,103.8015646,4.2,695,https://www.pa.gov.sg/our-network/community-clubs/Locate-CC/detail/Queenstown-Community-Centre,,fitness_center,"Queenstown, Singapore",Fitness Studio,QUEENSTOWN,10724.055500982318,28504.0,True,False,True,Local
Trapeze Rec. Club,ChIJJ0ET-C0Z2jERu1HCVh7nBQg,"27 Tg Pagar Rd, Singapore 088450",1.2794119,103.843994,4.9,128,https://www.trapezerec.club/,9296 4927,fitness_center,"Outram, Singapore",Fitness Studio,OUTRAM,9371.743688254664,5466.0,True,True,True,Local
Potong Pasir Community Club,ChIJjVfWj3gX2jERHP9kSEkgmOM,"6 Potong Pasir Ave 2, Singapore 358361",1.332651,103.8671489,4.2,856,,6280 1182,fitness_center,"Potong Pasir, Singapore",Fitness Studio,TOA PAYOH,10071.888371896875,35569.0,False,True,True,Local
MacPherson Community Club,ChIJzcJ00CYY2jERLxMxOUXUtrc,"400 Paya Lebar Way, Singapore 379131",1.3236119,103.8847295,4.1,934,,6841 1085,fitness_center,"MacPherson, Singapore",Fitness Studio,GEYLANG,9511.15418625147,34040.0,False,True,True,Local
Geylang Sports and Recreation Centre,ChIJNSyS0yMY2jER-LDPOscbDYk,"601 Aljunied Ave 1, Singapore 389862",1.3212711,103.8880491,3.7,9,,6745 7175,fitness_center,"Aljunied, Singapore",Fitness Studio,GEYLANG,9511.15418625147,34040.0,False,True,True,Local
Eunos Fit Club,ChIJkza79UsZ2jERdpvSfaGrEgY,"Kampong Ubi CC, 10 Jln Ubi, Singapore 409075",1.3178052,103.9007147,0.0,0,,9782 6685,fitness_center,"Eunos, Singapore",Fitness Studio,GEYLANG,9511.15418625147,34040.0,False,True,False,Local
Club Revive,ChIJ1R5u1qkX2jERG7lQtvmii64,"414 Upper Paya Lebar Rd, Singapore 534994",1.3500472,103.8799367,5.0,13,https://www.clubrevive.life/,8919 0460,fitness_center,"Paya Lebar, Singapore",Fitness Studio,HOUGANG,10153.063186096142,65133.0,True,True,True,Local
Virgin Active Paya Lebar,ChIJgfCnragZ2jER9L5TfSSX0rg,"Paya Lebar Quarter, Tower 2, 1 Paya Lebar Rd, #04-06 Link, Singapore 408533",1.3176186,103.8936905,4.3,267,http://www.virginactive.com.sg/,6911 0580,fitness_center,"Paya Lebar, Singapore",Fitness Studio,GEYLANG,9511.15418625147,34040.0,True,True,True,Local
GRITYARD (Paya Lebar),ChIJS4rcOKAZ2jER0GR9_f5vuYw,"676 Geylang Rd, Singapore 389603",1.3145688,103.8903933,4.9,79,http://www.grityard.com/,9112 6768,fitness_center,"Paya Lebar, Singapore",Fitness Studio,GEYLANG,9511.15418625147,34040.0,True,True,True,Local
Rasa Fitkraft Academy,ChIJC-1P27YX2jERkguEjYtSNmo,"140 Paya Lebar Rd, #07-21 Az@Paya Lebar, Singapore 409015",1.327289,103.8906611,5.0,4,https://www.rasafitnessdance.com/schedule,8363 3421,fitness_center,"Paya Lebar, Singapore",Fitness Studio,GEYLANG,9511.15418625147,34040.0,True,True,True,Local
Division Athletics Paya Lebar,ChIJBZYbAQAZ2jERnfW4DUMwwRU,"511 Guillemard Rd, B1-02 Grandlink Square, Singapore 399849",1.3143063,103.8913348,4.8,9,https://www.divisionathletics.sg/,9009 1003,fitness_center,"Paya Lebar, Singapore",Fitness Studio,GEYLANG,9511.15418625147,34040.0,True,True,True,Local
Paya Lebar Wellness Centre,ChIJ34OyK7gX2jERBTEJnRGZkQw,"112 Hougang Ave 1, Block 112, Singapore 530112",1.3543219,103.8885096,3.8,6,,6281 5905,fitness_center,"Paya Lebar, Singapore",Fitness Studio,HOUGANG,10153.063186096142,65133.0,False,True,True,Local
Mountbatten Community Club,ChIJlxt-6D4Y2jERdqSqyoLuCZo,"87 Jln. Satu, Singapura 390087",1.3091347,103.8870064,3.9,173,https://www.onepa.gov.sg/cc/mountbatten-cc,6344 7387,fitness_center,"Mountbatten, Singapore",Fitness Studio,GEYLANG,9511.15418625147,34040.0,True,True,True,Local
HomeTeamNS Bedok Reservoir Clubhouse,ChIJIXd5bmI92jERurGm3gMY1bw,"900 Bedok North Rd, Singapore 479994",1.3414979,103.9193927,4.3,561,https://www.hometeamns.sg/bedok/,6708 6699,fitness_center,"Bedok Reservoir, Singapore",Fitness Studio,PAYA LEBAR,0.0,0.0,True,True,True,Local
Civil Service Club @ Loyang (Former Aloha Loyang),ChIJeaoMKbU92jERRVPqPC2m72M,"159W Jln. Loyang Besar, Singapore 507020",1.3803679,103.9620131,4.2,1675,https://www.cscloyang.sg/,6581 9033,fitness_center,"Loyang, Singapore",Fitness Studio,PASIR RIS,11846.999197728956,40510.0,True,True,True,Local
Pasir Ris East Community Club,ChIJURXsNa092jERHMncG26FzIo,"1 Pasir Ris Drive 4, #01-08 East Community Building, Singapore 519457",1.3685335,103.959445,4.1,1048,,6584 2798,fitness_center,"Pasir Ris Park, Singapore",Fitness Studio,PASIR RIS,11846.999197728956,40510.0,False,True,True,Local
Pasir Ris ActiveSG Swimming Complex,ChIJj69OSrA92jER42yLl8ctTU0,"120 Pasir Ris Central, Singapore 519640",1.3743382,103.9521336,4.2,388,https://www.facebook.com/pasirrissc,6583 8557,fitness_center,"Pasir Ris Park, Singapore",Fitness Studio,PASIR RIS,11846.999197728956,40510.0,True,True,True,Local
Village Hotel Changi,ChIJDyOtkBc82jERkMqi4Nb1gpo,"1 Netheravon Rd, Singapore 508502",1.3904644,103.9860557,4.1,3192,https://www.villagehotels.asia/en/hotels/village-hotel-changi?utm_source=googleplaces_vhc&utm_medium=organic,6379 7111,fitness_center,"Changi Village, Singapore",Fitness Studio,CHANGI,0.0,0.0,True,True,True,Local
Civil Service Club @ Changi,ChIJ84xKhBc82jERLY4gV_u2jGo,"2 Netheravon Rd, Singapore 508503",1.3914147,103.9862467,4.3,2237,http://www.cscchangi.sg/,6709 4709,fitness_center,"Changi Village, Singapore",Fitness Studio,CHANGI,0.0,0.0,True,True,True,Local
Ketam Mountain Bike Park,ChIJVWsZeW8-2jER_oDJU6R9d10,"Pulau Ubin, Singapore 508357",1.4114816,103.9477547,4.5,332,https://www.nparks.gov.sg/activities/fitness-sport-and-wellness/mountain-biking,1800 471 7300,fitness_center,"Pulau Ubin, Singapore",Fitness Studio,PASIR RIS,11846.999197728956,40510.0,True,True,True,Local
Singapore Island Country Club (Bukit Location),ChIJNecNarcQ2jERdw5GN_6OhK4,"240 Sime Rd, Singapore 288303",1.3413867,103.8105068,4.3,901,https://www.sicc.org.sg/,6466 2244,fitness_center,"Pulau Biola, Singapore",Fitness Studio,CENTRAL WATER CATCHMENT,0.0,0.0,True,True,True,Local
Seletar Country Club,ChIJtXXHuC8U2jERc3E8hMl67AQ,"101 Seletar Club Rd, Singapore 798273",1.4096707,103.8581161,4.2,1154,http://www.seletarclub.com.sg/,6486 0800,fitness_center,"Pulau Seletar, Singapore",Fitness Studio,YISHUN,9019.018663760686,65153.0,True,True,True,Local
The Row Space,ChIJ6ZqBzmYZ2jERCjABL5KysGU,"1 Aliwal St, Level 3 Unit 3B, Singapore 199894",1.3016691,103.8613158,4.9,33,http://therowspace.sg/,6239 5226,gym,"Kampong Glam, Singapore",Gym,ROCHOR,0.0,0.0,True,True,True,Local
Bukit Canberra ActiveSG Swimming Complex,ChIJ07CwhJgV2jERPh1RvfSWQ9c,"21 Canberra Link, Singapore 756973",1.4469472,103.8234656,3.6,123,https://www.activesgcircle.gov.sg/facilities/bukit-canberra-swimming-complex,6374 5342,gym,"Sembawang, Singapore",Gym,SEMBAWANG,9856.022017546808,29749.0,True,True,True,Local
Yishun ActiveSG Swimming Complex,ChIJK0xqkm0U2jERxE1kvqI95bU,"351 Yishun Ave 3, YISHUN Swimming Complex, Singapore 769057",1.4232449,103.833608,4.0,786,https://www.activesgcircle.gov.sg/facilities/yishun-swimming-complex,6752 5513,gym,"Yishun, Singapore",Gym,YISHUN,9019.018663760686,65153.0,True,True,True,Local
Sengkang ActiveSG Swimming Complex,ChIJJYYBC3QW2jER2gCyeq98yUQ,"57 Anchorvale Rd, Singapore 544964",1.3962952,103.8863013,4.3,1634,http://sengkangswimming.com/,6315 3574,gym,"Sengkang, Singapore",Gym,SENGKANG,10549.841220784238,72478.0,True,True,True,Local
Choa Chu Kang Swimming Complex (The Swimming Place),ChIJ_WX9ue0R2jERj69SXrt_lJU,"1 Choa Chu Kang Street 53, Singapore 689236",1.390985,103.748067,4.1,73,http://www.theswimmingplace.com.sg/,9067 7450,gym,"Choa Chu Kang, Singapore",Gym,CHOA CHU KANG,10535.758835482462,52657.0,True,True,True,Local
Buona Vista Community Club,ChIJ0S3wSmoa2jER2aq7I8gFiy0,"36 Holland Dr, Singapore 270036",1.3094603,103.7926982,4.2,1091,https://www.pa.gov.sg/our-network/community-clubs/Locate-CC/detail/Buona-Vista-Community-Club,6778 5163,gym,"Redhill, Singapore",Gym,QUEENSTOWN,10724.055500982318,28504.0,True,True,True,Local
Delta Swimming Complex,ChIJVQ8bzSoa2jERbYemdYtj8kM,"900 Tiong Bahru Rd, Singapore 158790",1.2897143,103.8202466,4.0,422,https://deltaswimming.com/,6474 7573,gym,"Redhill, Singapore",Gym,RIVER VALLEY,15695.421208530806,3376.0,True,True,True,Local
THE GARAGE (Beauty World),ChIJNbHFAJAQ2jERIy_IbZJfjm4,"17 Lor Kilat, #01-11, Singapore 598139",1.3408754,103.7742195,4.9,133,http://garagecircuit.com/,8081 6861,gym,"Pulau Hantu Kechil, Singapore",Gym,BUKIT PANJANG,10223.16462037638,38525.0,True,True,True,Local
Grounded Spaces,ChIJMYGadEYZ2jERZh-w80mdNXY,"150 Orchard Rd, #06-01 Orchard Plaza, Singapore 238841",1.3011461,103.8411105,4.9,83,https://www.groundedspaces.sg/,8860 6809,yoga_studio,"Orchard Road, Singapore",Fitness Studio,NEWTON,0.0,0.0,True,True,True,Local
Inner Space Studio,ChIJs81px8cZ2jERGGPxtk59qfE,"3 Coleman St, #03-40 Peninsula Shopping Centre, Singapore 179804",1.2918776,103.8500267,3.9,11,http://innerspacestudio.sg/,9877 7750,yoga_studio,"Marina Bay, Singapore",Fitness Studio,DOWNTOWN CORE,14925.66,1350.0,True,True,True,Local
Arts and Movement Studio,ChIJk5u-E1MZ2jERm3SZXChajDY,"198 Geylang Rd, #05-03, Singapore 389263",1.3116895,103.8762067,0.0,0,,9853 7488,yoga_studio,"Geylang, Singapore",Fitness Studio,KALLANG,10084.228177543,31046.0,False,True,False,Local
Today.Club,ChIJbcFQAAAZ2jERy6NRRKNHmGA,"155a Telok Ayer St, Singapore 068609",1.2804628,103.8476849,4.5,6,,,pilates studio,"Marina Bay, Singapore",Fitness Studio,OUTRAM,9371.743688254664,5466.0,False,False,True,Local
WOW FiT Club Toa Payoh,ChIJdTVgy2AX2jERd9AaaPFu3Ww,"Lor 6 Toa Payoh, Singapore 319393",1.3309627,103.8468009,0.0,0,https://pcn.nparks.gov.sg/the-pcn-experience/glossary/,9631 6042,pilates studio,"Toa Payoh, Singapore",Fitness Studio,NOVENA,12399.320787338742,15038.0,True,True,False,Local
JJFitspace,ChIJkS7uv3wX2jERpbsHUgssMWY,"55 Jln Lembah Thomson, Singapore 577525",1.3520588,103.8318282,5.0,6,,9191 6961,personal_trainer,"Bishan, Singapore",Others,BISHAN,12483.410944381014,24524.0,False,True,True,Local
Parkway Parade,ChIJ2WUXmnEY2jERoGOSkJVgnrY,"80 Marine Parade Rd, Singapore 449269",1.3013366,103.9052333,4.3,8962,https://www.parkwayparade.com.sg/,6344 1242,personal_trainer,"Marine Parade, Singapore",Others,MARINE PARADE,12828.006335837315,13179.0,True,True,True,Local
Ozio Spa,ChIJX7FiQJM92jERU9rKj7pCK7c,"Blk742 Bedok Reservoir Rd, #01-3119, Singapore 470742",1.3382536,103.9222149,4.3,51,http://www.oziospa.com/,6979 7319,personal_trainer,"Bedok Reservoir, Singapore",Others,PAYA LEBAR,0.0,0.0,True,True,True,Local
Pasir Ris Town Park,ChIJNTlhccg92jERBftThrByZK0,"Along, Pasir Ris Central, Opposite MRT Station, Singapore 519639",1.3720588,103.95268,4.4,6335,,1800 471 7300,personal_trainer,"Pasir Ris Park, Singapore",Others,PASIR RIS,11846.999197728956,40510.0,False,True,True,Local
Singapore Calisthenics Academy,ChIJ1WyP8ssZ2jER7Pz-4jnMqzI,"11 Collyer Quay, LEVEL #20-00, Singapore 049317",1.2835611,103.8522914,4.9,91,http://singaporecalisthenics.com/,8894 9118,personal_trainer,"St John's Island, Singapore",Gym,DOWNTOWN CORE,14925.66,1350.0,True,True,True,Local
Physio And Sole Clinic (Tampines),ChIJuekCuYg92jER-xqbFC_rkbc,"1 Tampines Central 5, #07-09 CPF Tampines Building, Singapore 529508",1.3529798,103.9437935,4.9,173,https://physioandsole.com.sg/,9875 7282,clinical pilates,"Tampines, Singapore",Yoga/Pilates Studio,TAMPINES,10327.216990999425,72662.0,True,True,True,Local
The Osteopathy Clinic,ChIJH7x6HgAX2jERoO9ezMHwbkU,"11 Sin Ming Road, Two, B1-15 Thomson V, Singapore 575629",1.353405,103.8357573,5.0,3,https://www.osteopathyclinic.sg/,6974 9974,clinical pilates,"Bishan, Singapore",Yoga/Pilates Studio,BISHAN,12483.410944381014,24524.0,True,True,True,Local
Physio & Sole Clinic (Kovan),ChIJ0wYmorYX2jERS6Fm_cuz9lM,"247 Hougang Ave 3, #01-444, Singapore 530247",1.3591698,103.8918555,4.9,463,https://physioandsole.com.sg/,9892 9566,clinical pilates,"Hougang, Singapore",Yoga/Pilates Studio,HOUGANG,10153.063186096142,65133.0,True,True,True,Local
BMJ Physiotherapy Clinic | Kovan & Hougang,ChIJq-SRdjwX2jERDL5Vs4v9PKk,"Blk 204 Hougang St 21, #01-103, Singapore 530204",1.3589014,103.8851515,4.9,364,https://bmjtherapy.com/?utm_source=google&utm_medium=gbp,6909 5208,clinical pilates,"Hougang, Singapore",Yoga/Pilates Studio,HOUGANG,10153.063186096142,65133.0,True,True,True,Local
Punggol West Community Centre,ChIJJQf5a-EV2jERL3qNF7NYPw0,"Block 259C Punggol Fld, #01-47, Singapore 823259",1.4042038,103.895652,4.3,74,https://www.onepa.gov.sg/cc/punggol-west-cc,6444 1128,clinical pilates,"Punggol, Singapore",Yoga/Pilates Studio,PUNGGOL,10475.132530236871,51758.0,True,True,True,Local
Physio & Sole Clinic (Punggol),ChIJF_T39fUV2jERMLiLHPUbZJ4,"9 Sentul Cres, #04-08 SAFRA Punggol, Singapore 828654",1.410196,103.906152,4.9,73,http://physioandsole.com/,9757 2453,clinical pilates,"Punggol, Singapore",Yoga/Pilates Studio,PUNGGOL,10475.132530236871,51758.0,True,True,True,Local
Civil Service Club @ Bukit Batok,ChIJMduSTzgQ2jERm52nxYo5Zps,"91 Bukit Batok West Ave 2, Singapore 659206",1.3532454,103.7484442,4.3,1951,http://www.cscbukitbatok.sg/,6513 7480,clinical pilates,"Bukit Batok, Singapore",Yoga/Pilates Studio,BUKIT BATOK,10063.376106008258,47468.0,True,True,True,Local
Synergy Physiotherapy - King Albert Park,ChIJ66eOUcER2jERGhcQcsQFfg4,"03-04 Sime Darby Centre 896 Dunearn Road Just Opp King Albert Part MRT, Singapore 589472",1.336791,103.7836817,5.0,13,http://www.synergyphysio.com.sg/,6463 0905,clinical pilates,"Bukit Panjang, Singapore",Yoga/Pilates Studio,BUKIT TIMAH,15710.218884329815,20472.0,True,True,True,Local
Edge Healthcare @ Cecil,ChIJp0FJnw0Z2jERWeMssJZML-M,"139 Cecil St, #06-02, Singapore 069539",1.2795102,103.8484079,5.0,143,https://www.edgehealthcare.com.sg/,6908 1871,clinical pilates,"Redhill, Singapore",Yoga/Pilates Studio,OUTRAM,9371.743688254664,5466.0,True,True,True,Local
Mark & Joko Elite Physio Sports Clinic,ChIJoW30SsQZ2jER2Qldm1wci44,"120 Rangoon Rd, #01-02 Maple Leaf - Elite 1, Singapore 218398",1.3152706,103.8537326,4.9,49,http://www.markjoko.sg/,8223 7914,clinical pilates,"Kallang, Singapore",Yoga/Pilates Studio,KALLANG,10084.228177543,31046.0,True,True,True,Local
RAPID PHYSIOCARE @ PAYA LEBAR,ChIJBbTcLe0Z2jER-kVltfA-0ww,"1 Paya Lebar Link #01-06 PLQ2, Paya Lebar Quarter, Singapore 408533",1.3174326,103.8942071,5.0,192,https://rapidphysiocare.com/,6904 4900,clinical pilates,"Paya Lebar, Singapore",Yoga/Pilates Studio,GEYLANG,9511.15418625147,34040.0,True,True,True,Local
Heal360 Physioclinic - East Coast,ChIJgZVhYHEY2jERFbR7aBEsP9Q,"63 E Coast Rd, #01-03, Singapore 428776",1.3052246,103.9035835,5.0,32,https://physioclinic.sg/,9639 0509,clinical pilates,"Mountbatten, Singapore",Yoga/Pilates Studio,MARINE PARADE,12828.006335837315,13179.0,True,True,True,Local
Heal360 Physioclinic,ChIJc27GKG0Z2jER_o6KJRYn-sw,"46 Tras St, Singapore 078985",1.2782282,103.8442895,4.9,475,http://www.physioclinic.sg/,6224 4178,clinical pilates,"Mountbatten, Singapore",Yoga/Pilates Studio,OUTRAM,9371.743688254664,5466.0,True,True,True,Local
HelloPhysio (Raffles Hotel Arcade),ChIJ4wqvmx0Z2jERyYXsbU_AHnY,"328 N Bridge Rd, #02-36 Raffles Hotel Arcade, Singapore 188719",1.2959631,103.8546436,5.0,39,https://www.hellophysio.sg/,8686 0959,clinical pilates,"Changi Village, Singapore",Yoga/Pilates Studio,ROCHOR,0.0,0.0,True,True,True,Local
Prorehab Farrer Park,ChIJHX2SpXkZ2jERDLmvEH2yuLA,"213 Rangoon Rd, Singapore 218455",1.3176857,103.8524867,5.0,88,https://www.prorehab.sg/,8815 0758,clinical pilates,"Pulau Seletar, Singapore",Yoga/Pilates Studio,KALLANG,10084.228177543,31046.0,True,True,True,Local
The Movement Academy | Balanced Body® & GYROTONIC® Education Center,ChIJLYlQfBQZ2jERUK-uUWhPCgo,"81 Clemenceau Ave, #03-22 UE Square, Singapore 239917",1.2921309,103.8425941,4.7,13,http://themovementacademy.sg/,8428 9887,megaformer,"Marina Bay, Singapore",Yoga/Pilates Studio,SINGAPORE RIVER,0.0,0.0,True,True,True,Local
Hillion Mall,ChIJ_8HAraQR2jERaLrfjzD5k7Y,"17 Petir Rd, Singapore 678278",1.3785144,103.7630196,4.2,8709,https://www.hillionmall.com.sg/,6769 0009,megaformer,"Bukit Panjang, Singapore",Yoga/Pilates Studio,CHOA CHU KANG,10535.758835482462,52657.0,True,True,True,Local
Panna Space 睿空间运动美学工作室,ChIJq7GaodkZ2jERlEBIgzwXpn0,"359C Joo Chiat Rd, Singapore 427604",1.3083915,103.9032974,0.0,0,,,megaformer,"Marine Parade, Singapore",Yoga/Pilates Studio,MARINE PARADE,12828.006335837315,13179.0,False,False,False,Local
Tiong Bahru Community Centre,ChIJScI1FHoZ2jERNfs4hj7_ytE,"67A Eu Chin St, Singapore 169715",1.2834582,103.831883,4.2,383,https://www.pa.gov.sg/our-network/community-clubs/Locate-CC/detail/Tiong-Bahru-Community-Centre,6223 0748,Lagree,"Tiong Bahru, Singapore",Yoga/Pilates Studio,SINGAPORE RIVER,0.0,0.0,True,True,True,Local
Elevate: The Barbell Club,ChIJe65qWToX2jERWjsZ-uppZVI,"1106 Serangoon Rd, #1106, Singapore 328198",1.3241416,103.8654067,5.0,93,https://elevatebbc.sg/,8818 9817,Lagree,"Kallang, Singapore",Yoga/Pilates Studio,KALLANG,10084.228177543,31046.0,True,True,True,Local
The Ripple Club Orchard,ChIJM6nf-iQa2jERch4WbkXBYlk,"277 Orchard Rd, #19-00 Hotel Jen OrchardGateway, Singapore 238858",1.3002793,103.8388322,4.9,50,https://therippleclub.fit/,,hot yoga,"Orchard Road, Singapore",Yoga/Pilates Studio,RIVER VALLEY,15695.421208530806,3376.0,True,False,True,Local
Sembawang Hot Spring Park,ChIJWwsOaXkT2jERYqyeEFN3rPA,"Along, Gambas Ave, Singapore 756952",1.4343488,103.8224691,4.3,1688,https://www.nparks.gov.sg/contact-us,1800 471 7300,hot yoga,"Sembawang, Singapore",Yoga/Pilates Studio,MANDAI,0.0,0.0,True,True,True,Local
Yishun Park,ChIJi1mpD2oU2jERl1nZ8rZofAE,Singapore,1.4245497,103.8425364,4.3,428,,,hot yoga,"Yishun, Singapore",Yoga/Pilates Studio,YISHUN,9019.018663760686,65153.0,False,False,True,Local
Aramsa - The Garden Spa,ChIJ-_BYrB8X2jER1axfzKTsvsI,"1384 Ang Mo Kio Ave 1, Bishan Park 2, Singapore 569932",1.3621475,103.8475534,4.9,6798,http://www.aramsaspas.com/,6456 6556,hot yoga,"Bishan, Singapore",Yoga/Pilates Studio,BISHAN,12483.410944381014,24524.0,True,True,True,Local
RSG Wellness Spa,ChIJa1LZ4G0R2jERHhZqiURBekM,"54 Jalan Jurong Kechil, Building, JK, Singapore 598580",1.3405616,103.7742247,4.5,105,http://www.rsgwellnessspa.com/,6931 2499,hot yoga,"Bukit Batok, Singapore",Yoga/Pilates Studio,BUKIT PANJANG,10223.16462037638,38525.0,True,True,True,Local
Keat Hong Community Club,ChIJVVVVVegR2jER_ncZsSw8hfM,"2 Choa Chu Kang Loop, #01-01, Singapore 689687",1.3841444,103.744825,4.2,1100,,6769 4194,hot yoga,"Choa Chu Kang, Singapore",Yoga/Pilates Studio,CHOA CHU KANG,10535.758835482462,52657.0,False,True,True,Local
Hua Mu Lan Spa,ChIJdXaLIY4a2jERIWmoujt3ev8,"Clementi Ave 3, #01-51 BLK 443, Singapore 120443",1.3138994,103.7636748,4.9,1006,,6774 0818,hot yoga,"Clementi, Singapore",Yoga/Pilates Studio,CLEMENTI,11191.556927093045,26815.0,False,True,True,Local
Le Belle Spa Clementi,ChIJaz9CEwsb2jERUEly58aAtwI,"450 Clementi Ave 3, #01-285, Singapore 120450",1.3135086,103.7654817,4.8,139,,6530 3438,hot yoga,"Clementi, Singapore",Yoga/Pilates Studio,CLEMENTI,11191.556927093045,26815.0,False,True,True,Local
Wellness TCM Spa,ChIJ4egXYTMZ2jERaB0ArXNXMyk,"110 Faber Dr, Singapore 129421",1.3204131,103.7564206,4.8,83,http://www.wellnesstcmspa.com/,9656 6523,hot yoga,"Clementi, Singapore",Yoga/Pilates Studio,CLEMENTI,11191.556927093045,26815.0,True,True,True,Local
Y2 SPA,ChIJ0UKNCk8Z2jERP7DrPwtt7XI,"BLK 18 Upper Boon Keng Rd, #01-1139, Ville 380018",1.3149967,103.8724137,4.3,47,http://www.y2spa.com/,6980 7290,hot yoga,"Boon Keng, Singapore",Yoga/Pilates Studio,KALLANG,10084.228177543,31046.0,True,True,True,Local
Changi Simei Community Club,ChIJrzknUh892jERvwiQA4cBlu4,"10 Simei Street 2, Singapore 529915",1.3448021,103.9550323,4.2,880,,6787 5265,hot yoga,"Simei, Singapore",Yoga/Pilates Studio,TAMPINES,10327.216990999425,72662.0,False,True,True,Local
Kampong Glam Cafe,ChIJnwMTELEZ2jER4WqhksUDLFA,"17 Bussorah St, Singapore 199438",1.3012493,103.8599309,4.2,2983,http://kgglamcafe.ec-platform.net/,6294 1697,Bikram,"Kampong Glam, Singapore",Yoga/Pilates Studio,ROCHOR,0.0,0.0,True,True,True,Local
Sembawang Shopping Centre,ChIJ5-zrBoEU2jERhLnuZ0bgvUw,"604 Sembawang Rd, Singapore 758459",1.441615,103.8246417,4.0,5251,http://www.sembawangsc.com.sg/,6757 8000,Bikram,"Sembawang, Singapore",Yoga/Pilates Studio,SEMBAWANG,9856.022017546808,29749.0,True,True,True,Local
Hougang Mall,ChIJTzOjnDcW2jERHyoyj5LFmQ4,"90 Hougang Ave 10, Singapore 538766",1.372455,103.8938277,4.0,7458,http://www.hougangmall.com.sg/,6488 9617,Bikram,"Hougang, Singapore",Yoga/Pilates Studio,HOUGANG,10153.063186096142,65133.0,True,True,True,Local
旺爐 Wanglu Hot Pot @ Hillion Mall,ChIJjeCYDwAR2jER_IRCbQTHOBE,"17 Petir Rd, B1-65 Hillion Mall, Singapore 678278",1.3784298,103.763132,4.7,47,https://www.cityhotpot.sg/,6478 8806,Bikram,"Bukit Panjang, Singapore",Yoga/Pilates Studio,CHOA CHU KANG,10535.758835482462,52657.0,True,True,True,Local
each a cup @ Bukit Panjang Integrated Transport Hub,ChIJSU1xRE0R2jER-zdhYg54XDU,"15, #01-61 Petir Rd, Singapore 678270",1.3783857,103.7635192,4.1,84,http://www.each-a-cup.com/,,Bikram,"Bukit Panjang, Singapore",Yoga/Pilates Studio,CHOA CHU KANG,10535.758835482462,52657.0,True,False,True,Local
Green on Earth Vegetarian Cafe @ The Rail Mall,ChIJMZFqQ7kR2jERewwgbz_9dxo,"386 Upper Bukit Timah Rd, Singapore 678043",1.357767,103.7680313,4.4,744,https://sitelift.site/greenonearthvegetariancafe/,6769 2230,Bikram,"Bukit Panjang, Singapore",Yoga/Pilates Studio,BUKIT PANJANG,10223.16462037638,38525.0,True,True,True,Local
Swimming Pool @CCK Safra,ChIJwxR4IVsR2jERG5xxo0bncPc,"28 Choa Chu Kang Dr, Singapore 689964",1.3883056,103.7468345,3.8,20,,,Bikram,"Choa Chu Kang, Singapore",Yoga/Pilates Studio,CHOA CHU KANG,10535.758835482462,52657.0,False,False,True,Local
Indian Barber Shop & Beauty Salon Choa Chu Kang,ChIJy6alMosR2jERLpQ_qIbDp1Q,"533 Choa Chu Kang Street 51, #01-19 Limbang Shopping Centre, Singapore 680533",1.3922588,103.7431268,4.2,73,,8380 3661,Bikram,"Choa Chu Kang, Singapore",Yoga/Pilates Studio,CHOA CHU KANG,10535.758835482462,52657.0,False,True,True,Local
Hito Iki Spa,ChIJF9geIBIZ2jERx8Td4mH0Lqs,"35 Telok Blangah Rise, #01-277, Singapore 090035",1.2727361,103.8218098,4.9,208,http://www.hitoikispa.sg/,6518 3558,Bikram,"Bukit Merah, Singapore",Yoga/Pilates Studio,BUKIT MERAH,10092.468693505003,45358.0,True,True,True,Local
Kangjia Massage - Aljunied,ChIJIUVHuyMY2jERUHT7d5317RA,"118 Aljunied Avenue 2, Aljunied Rd, 01-106, Singapore 380118",1.320002,103.8874426,4.6,195,https://kangjia-massage.com/,6746 7382,Bikram,"Aljunied, Singapore",Yoga/Pilates Studio,GEYLANG,9511.15418625147,34040.0,True,True,True,Local
Paya Lebar Square,ChIJzxwZERgY2jER2FX37qmG49Q,"60 Paya Lebar Rd, Singapore 409051",1.3191484,103.8925321,4.3,4985,https://payalebarsquare.sg/,6702 3107,Bikram,"Paya Lebar, Singapore",Yoga/Pilates Studio,GEYLANG,9511.15418625147,34040.0,True,True,True,Local
Adventures by Asian Detours,ChIJeXjL6II-2jERnNP7lGrGQWk,"34 Pulau Ubin, Singapore 508287",1.4028538,103.970291,4.9,654,http://www.adventures.network/,9772 2071,Bikram,"Pulau Ubin, Singapore",Yoga/Pilates Studio,PASIR RIS,11846.999197728956,40510.0,True,True,True,Local
Shi Li Fang Hot Pot @ White Sands Shopping Centre,ChIJwdM_ocgZ2jERTe7E1sEaQSo,"1 Pasir Ris Central St 3, #02 - 12/13/14 White Sands, Singapore 518457",1.3724166,103.9496584,4.4,815,http://www.facebook.com/shilifangsg,6636 7899,Bikram,"Pulau Ketam, Singapore",Yoga/Pilates Studio,PASIR RIS,11846.999197728956,40510.0,True,True,True,Local
Haidilao Hot Pot @The Seletar Mall,ChIJ35bPz2QW2jERm7za34hx4zQ,"33 Sengkang W Ave, #03-36 to 37 The Seletar Mall, Singapore 797653",1.3912126,103.8763054,4.6,2587,https://www.superhiinternational.com/sg,6282 5505,Bikram,"Pulau Seletar, Singapore",Yoga/Pilates Studio,SENGKANG,10549.841220784238,72478.0,True,True,True,Local
Takashimaya Shopping Centre,ChIJg6KI8ZEZ2jER9W7OwvUXPRs,"391 Orchard Rd, Singapore 238872",1.3028787,103.8343718,4.5,11660,https://www.takashimayasc.com.sg/,6738 1111,yin yoga,"Orchard Road, Singapore",Yoga/Pilates Studio,ORCHARD,0.0,0.0,True,True,True,Local
Yin & Yang Salon,ChIJc4bys1AZ2jERg9hhTGqMMzE,〒050531 050531 531 Upper Cross Street ，＃02-51 A＆J CREATIVE DANCEWORLD Hong Lim Complex,1.2844656,103.8454538,5.0,4,https://www.yin-yang-salon.com/,,yin yoga,"Marina Bay, Singapore",Yoga/Pilates Studio,OUTRAM,9371.743688254664,5466.0,True,False,True,Local
ZUYUE Javanese Spa Jalan Tampang,ChIJQWSgs50V2jERpHhoRocuwb8,"16 Jln Tampang, Singapore 758960",1.4418174,103.8233935,5.0,582,http://www.javanesespa.com.sg/,6737 3767,yin yoga,"Sembawang, Singapore",Yoga/Pilates Studio,SEMBAWANG,9856.022017546808,29749.0,True,True,True,Local
Pasir Ris Central Community Club,ChIJb4bO2YE92jERpIF7p1BCJPY,"536 Pasir Ris Dr 1, #01-286, Singapore 510536",1.3706948,103.9497944,5.0,2,,6322 7860,yin yoga,"Pasir Ris Park, Singapore",Yoga/Pilates Studio,PASIR RIS,11846.999197728956,40510.0,False,True,True,Local
Skypark Sentosa by AJ Hackett,ChIJ4wQkC_kb2jERWQbscMaxu0Y,"30 Siloso Bch Walk, Sentosa Island, 30, Singapore 099011",1.2551584,103.8133212,4.6,1066,https://www.skyparksentosa.com/,6911 3070,aerial yoga,"Sentosa, Singapore",Yoga/Pilates Studio,SOUTHERN ISLANDS,0.0,0.0,True,True,True,Local
Revvo Academy of Wellness,ChIJGwaFODkZ2jER8MI97GnU2ic,"CSC@Tessensohn, Tessensohn Rd, Level 4, Unit 04-00 60, Singapore 217664",1.3158031,103.8560635,5.0,19,https://www.revvogroup.com/,9151 5735,personal training studio,"Kallang, Singapore",Fitness Studio,KALLANG,10084.228177543,31046.0,True,True,True,Local
The Forge - Olympic Weightlifting and Barbell Club,ChIJ05zIjcsZ2jEREFL7jElZtCE,"451 Race Course Rd, Singapore 218695",1.3162472,103.8579419,4.7,74,http://www.theforge.sg/,,strength training studio,"Kallang, Singapore",Fitness Studio,KALLANG,10084.228177543,31046.0,True,False,True,Local
Eastside Fight Club,ChIJA8fn0ewZ2jERCgb5hiOzN-M,"78A Lor 6 Geylang, Level 2, Singapore 399230",1.3091015,103.8766224,5.0,53,http://eastsidefightclub.com/,9105 0937,weightlifting gym,"Geylang, Singapore",Gym,KALLANG,10084.228177543,31046.0,True,True,True,Local
SUTD Sports and Recreation Centre,ChIJs6XD7d482jERSe1xuAHuVjY,"61 Changi South Ave 1, Singapore 486000",1.3417858,103.9647378,4.5,365,http://www.sutd.edu.sg/Campus-Life/Sports-and-Recreation-Centre,6499 8927,calisthenics gym,"Changi, Singapore",Gym,TAMPINES,10327.216990999425,72662.0,True,True,True,Local
Calisthenics Park,ChIJzVvYFwAT2jERFK1LzAD8xSI,"646 Woodlands Ring Rd, Singapore 730646",1.4376272,103.8000492,3.0,2,,,calisthenics gym,"Woodlands, Singapore",Gym,MANDAI,0.0,0.0,False,False,True,Local
320D Anchorvale drive calisthenics park,ChIJa_J9j_sX2jERS0v9-zSEOgg,"320C Anchorvale Dr, Singapore 543320",1.3908814,103.8911997,3.0,2,,,calisthenics gym,"Sengkang, Singapore",Gym,SENGKANG,10549.841220784238,72478.0,False,False,True,Local
CDGE Academy,ChIJ4xdmA7092jERNmjrVsWB3fo,"59 Loyang Dr, Singapore 508969",1.371489,103.967722,5.0,364,https://www.cdge.com.sg/personal/training-academy/,6214 8324,functional training,"Loyang, Singapore",Fitness Studio,PASIR RIS,11846.999197728956,40510.0,True,True,True,Local
International Sports Academy (ISA),ChIJcwjXZRQZ2jERsD4pa90fleg,"1 Stadium Pl, #01-11, Singapore 397628",1.3023637,103.873234,4.6,207,http://www.isa.edu.sg/,6423 0668,functional training,"Pulau Sakijang Bendera, Singapore",Fitness Studio,KALLANG,10084.228177543,31046.0,True,True,True,Local
Seletar Flying Club,ChIJV8Zu87QV2jERsALm-oUc50U,"700 W Camp Rd, #06-05 JTC Aviation One, Singapore 797649",1.4203155,103.8641543,4.7,15,https://singaporeseletarflyingclub.com/,8853 7295,functional training,"Pulau Seletar, Singapore",Fitness Studio,SELETAR,0.0,0.0,True,True,True,Local
Intensity Studio Rental,ChIJ7XDZa8gV2jERgTgO8zhVBuY,"15 Yishun Industrial Street 1, #-03-23 Win 5, Singapore 768091",1.4377888,103.8442699,5.0,3,http://www.intensitystudiorental.com/,8839 4682,HIIT studio,"Yishun, Singapore",Fitness Studio,SIMPANG,0.0,0.0,True,True,True,Local
Pasir Ris Elias Community Club,ChIJNfo_ur492jERsuHW17b5OEs,"93 Pasir Ris Dr 3, Singapore 519498",1.3783283,103.942844,4.2,837,,6583 1220,circuit training,"Pasir Ris, Singapore",Fitness Studio,PASIR RIS,11846.999197728956,40510.0,False,True,True,Local
Common Man Fight Club,ChIJRXS9nPIZ2jERwi62WjLCAO4,"8 Woodlands Square, Solo 2, #04-31 Woods Square, Singapore 737713",1.4348404,103.7862059,5.0,58,https://www.commonmanfc.com/,9109 1676,circuit training,"Woodlands, Singapore",Fitness Studio,WOODLANDS,9184.241848443537,70416.0,True,True,True,Local
Toa Payoh East Community Club,ChIJ__M9jW8X2jERDBEGQCQ2fJU,"160 Lor 6 Toa Payoh, Singapore 319380",1.3362303,103.8546523,4.1,210,https://www.facebook.com/TPECSC/,,circuit training,"Toa Payoh, Singapore",Fitness Studio,TOA PAYOH,10071.888371896875,35569.0,True,False,True,Local
Hougang ActiveSG Sports Centre,ChIJkXNe_kgW2jERdbA8eINhaAc,"93 Hougang Ave 4, Singapore 538832",1.3706138,103.8885266,4.0,302,https://www.activesgcircle.gov.sg/facilities/hougang-sport-centre,6315 8671,circuit training,"Hougang, Singapore",Fitness Studio,HOUGANG,10153.063186096142,65133.0,True,True,True,Local
Senja Cashew Swimming Complex (The Swimming Place),ChIJ03G_xKIR2jERuE_Fzg7W0XE,"101 Bukit Panjang Rd, Singapore 679910",1.3821209,103.7645736,4.1,231,http://theswimmingplace.com.sg/,6892 0858,circuit training,"Bukit Panjang, Singapore",Fitness Studio,CHOA CHU KANG,10535.758835482462,52657.0,True,True,True,Local
Ola Beach Club,ChIJuU9qyPgb2jERidqJVhPuyUw,"46 Siloso Bch Walk, Singapore 099005",1.253077,103.815187,4.3,2416,http://www.olabeachclub.com/,8028 3228,circuit training,"Sentosa, Singapore",Fitness Studio,SOUTHERN ISLANDS,0.0,0.0,True,True,True,Local
Singapore Island Country Club (Island Location),ChIJNepkm9QQ2jER1UIwCnWc_8A,"180 Island Club Rd, Singapore 578774",1.3589462,103.8189859,4.3,887,https://gis.sicc.org.sg/,6459 2222,circuit training,"Pulau Sakijang Bendera, Singapore",Fitness Studio,CENTRAL WATER CATCHMENT,0.0,0.0,True,True,True,Local
Police Coast Guard - Brani Base (Headquarters),ChIJ81JXrksY2jER7-F68K-_oI8,"11 Brani Way, Singapore 098658",1.2577501,103.831658,3.8,14,https://www.police.gov.sg/,1800 375 0000,circuit training,"Pulau Brani, Singapore",Fitness Studio,SOUTHERN ISLANDS,0.0,0.0,True,True,True,Local
Leng Kee Community Club,ChIJZ4nitywa2jERVHZmtznHoJY,"400 Lengkok Bahru, #01-01, Singapore 159049",1.2897812,103.8143171,4.5,93,https://www.onepa.gov.sg/cc/leng-kee-cc,6473 5007,circuit training,"Pulau Damar Darat, Singapore",Fitness Studio,TANGLIN,16323.82970252404,6656.0,True,True,True,Local
F1 Recreation,ChIJKV8z5igY2jERTwe6UqsW0P4,"20 Sin Ming Ln, #01-57 Midview City, Singapore 573968",1.3580653,103.8331785,4.7,61,http://www.f1-recreation.com.sg/,6846 7666,circuit training,"Pulau Damar Darat, Singapore",Fitness Studio,BISHAN,12483.410944381014,24524.0,True,True,True,Local
Rower's Bay Park,ChIJ67h-A0oU2jERANQwK1wnId8,"Seletar Club Rd, Singapore 798273",1.4218848,103.8635461,4.5,491,https://www.nparks.gov.sg/,,circuit training,"Pulau Seletar, Singapore",Fitness Studio,SELETAR,0.0,0.0,True,False,True,Local
Singapore Youth Flying Club,ChIJVzbRxTMU2jER87m7cT4pExs,"515 W Camp Rd, Singapore Youth Flying Club, Singapore 797695",1.4141939,103.86318,4.5,32,https://www.syfc.sg/,6483 6236,circuit training,"Pulau Seletar, Singapore",Fitness Studio,SELETAR,0.0,0.0,True,True,True,Local
SingHealth Alice Lee Institute of Advanced Nursing,ChIJz7E3V3AZ2jERzpKY5JVRw7o,"168 Jalan Bukit Merah, #18-01, Singapore 150168",1.2833078,103.8188257,3.7,3,http://www.sgh.com.sg/subsites/IAN/Pages/home.aspx,,EMS training,Singapore,Fitness Studio,BUKIT MERAH,10092.468693505003,45358.0,True,False,True,General
1 ALO Medical Holdings,ChIJmcSKEFkZ2jERczd1lPIMGFk,"101 Irrawaddy Rd, #09-04/05/06 Royal Healthcare Medical Centre, Singapore 329565",1.3206053,103.8432372,4.9,384,https://alomedical.com.sg/,6100 3686,EMS training,Singapore,Fitness Studio,NOVENA,12399.320787338742,15038.0,True,True,True,General
Singapore Emergency Responder Academy,ChIJ_7XvBpgZ2jERuAOcdNRgj_Y,"51 Cuppage Rd, #03-03, Singapore 229469",1.3028749,103.8401603,4.9,4696,http://sera.sg/,6866 0663,EMS training,"Orchard Road, Singapore",Fitness Studio,NEWTON,0.0,0.0,True,True,True,Local
Singapore Maritime Academy (SMA),ChIJ0b2KS2ca2jERzplkNrhWAIw,"Dover Rd, Blk T1A Admin Building, Singapore 139651",1.309149,103.7811413,4.5,50,https://www.sp.edu.sg/sma,6775 1133,EMS training,"Marina Bay, Singapore",Fitness Studio,QUEENSTOWN,10724.055500982318,28504.0,True,True,True,Local
Eversafe Academy,ChIJFdIKgbgZ2jER3lJ4c7liun4,"2 Kampong Kapor Rd, Singapore 208674",1.3063626,103.8541671,4.8,3541,https://eversafe.edu.sg/,6297 8417,EMS training,"Little India, Singapore",Fitness Studio,ROCHOR,0.0,0.0,True,True,True,Local
EMS Metrology & Services,ChIJVYOgHXAT2jER_kgABqh-a0E,"Blk 20, #05-25 Woodlands Link, Singapore 738733",1.4505612,103.8111965,2.3,3,,6753 7898,EMS training,"Woodlands, Singapore",Fitness Studio,SEMBAWANG,9856.022017546808,29749.0,False,True,True,Local
Nee Soon East Community Club,ChIJVWNV5GUU2jER2Y-RPCaMni0,"1 Yishun Ave 9, Singapore 768893",1.4309056,103.8386666,4.3,1048,https://www.pa.gov.sg/our-network/community-clubs/Locate-CC/detail/Nee-Soon-East-Community-Club,6257 0446,EMS training,"Yishun, Singapore",Fitness Studio,YISHUN,9019.018663760686,65153.0,True,True,True,Local
Toa Payoh Mall,ChIJ5Rryfx0X2jERqvS-qax1mgE,"185 Toa Payoh Central, Singapore 310185",1.3327077,103.847326,4.1,5785,http://toapayohshoppingmall.com/,,EMS training,"Toa Payoh, Singapore",Fitness Studio,NOVENA,12399.320787338742,15038.0,True,False,True,Local
Devan Nair Institute for Employment and Employability,ChIJN3O7bA4Q2jER9hiSRa30Pa0,"80 Jurong East Street 21, Singapore 609607",1.3358012,103.7446101,4.1,166,https://e2i.com.sg/,6474 0606,EMS training,"Jurong East, Singapore",Fitness Studio,BUKIT BATOK,10063.376106008258,47468.0,True,True,True,Local
First Ambulance Services Singapore,ChIJIQnbvh8R2jERvwNDKiNZnHE,"340C King George's Ave, King George's Building, Singapore 208574",1.3100861,103.8622518,4.8,156,http://firstambulance.com.sg/,6252 9696,EMS training,"Kallang, Singapore",Fitness Studio,KALLANG,10084.228177543,31046.0,True,True,True,Local
Ascendo Academy - Mountbatten,ChIJDxFP1ZMX2jER_WgK3zA3PoE,"231 Mountbatten Road Block B, #02-01, Singapore 397999",1.3081216,103.8807723,4.9,6746,http://www.ascendo.sg/,8383 1896,EMS training,"Mountbatten, Singapore",Fitness Studio,GEYLANG,9511.15418625147,34040.0,True,True,True,Local
SAFTI Military Institute,ChIJQyYVYHgP2jERqw5kREItcQ0,"500 Upper Jurong Rd, Singapore 638364",1.3336691,103.6803337,4.1,81,,6799 7067,EMS training,"Pulau Tekong Kechil, Singapore",Fitness Studio,JURONG WEST,9632.399985216842,74409.0,False,True,True,Local
Centre of Excellence in Maritime Safety (CEMS),ChIJbcbPg7Mb2jERG4gSgZJHpqM,"500 Dover Rd, Singapore 139651",1.3092402,103.7800999,5.0,1,https://www.sp.edu.sg/industry/cems,,EMS training,"Pulau Damar Darat, Singapore",Fitness Studio,QUEENSTOWN,10724.055500982318,28504.0,True,False,True,Local
Dive Marine Group Services,ChIJRVpQWW0Q2jERikAhrjI5hIo,"24 Third Lok Yang Rd, Singapore 628014",1.3270702,103.690192,4.3,18,https://dmgroupservices.com/,6515 0090,EMS training,"Pulau Damar Darat, Singapore",Fitness Studio,JURONG WEST,9632.399985216842,74409.0,True,True,True,Local
Juggernaut Fight Club,ChIJRZ11L_YZ2jERHNhx32jFVtc,"90 Eu Tong Sen Street CIDC Building, car park, Singapore 059811",1.2831367,103.841587,4.9,122,http://www.juggernautfightclub.com/,9271 3564,boxing gym,Singapore,Gym,OUTRAM,9371.743688254664,5466.0,True,True,True,General
IQ Fightclub,ChIJJct1LI0Z2jERSyors2FiUAI,"316 Jalan Besar #02-01, #02-02 and, Singapore 208974",1.3116237,103.8596344,5.0,14,,8879 3050,boxing gym,"Little India, Singapore",Gym,KALLANG,10084.228177543,31046.0,False,True,True,Local
Gifted Fight Academy,ChIJyeOLrgsZ2jERedmurr0UPrU,"291 Serangoon Rd, #03-00, Singapore 218107",1.3112635,103.8547501,5.0,46,http://www.giftedfightacademy.info/,9189 1610,boxing gym,"Little India, Singapore",Gym,ROCHOR,0.0,0.0,True,True,True,Local
ELITE Sports Academy,ChIJ1-HNP3gZ2jERU4nEIDMV-4I,"191 thomson road Goldhill Shopping Centre, Corner unit 191B, 3rd Floor (Above SuperCuts Exit United Square, 20m from Novena MRT, Goldhill Plaza, Parking, Singapore 307632",1.3186753,103.8434759,5.0,414,http://elitecoach.com.sg/,8112 9162,boxing gym,"Little India, Singapore",Gym,NOVENA,12399.320787338742,15038.0,True,True,True,Local
INVINCIBLE COLEMAN ACADEMY,ChIJPwjsED8Z2jERBSi7kPyZc0I,"Block 2 Balestier Rd, #01-655 Shopping Centre, Singapore 320002",1.3258323,103.8426148,5.0,5,https://bookings.vibefam.com/invinciblecolemanacademy/classes,8207 8618,boxing gym,"Toa Payoh, Singapore",Gym,NOVENA,12399.320787338742,15038.0,True,True,True,Local
Hilltop Academy,ChIJo7PvCs8Z2jERLVbytuy5X48,"576B Serangoon Rd, Level 3, Singapore 218190",1.314668,103.857974,4.9,64,http://www.hilltopacademysg.com/,9151 6537,boxing gym,"Serangoon, Singapore",Gym,KALLANG,10084.228177543,31046.0,True,True,True,Local
JKD ACADEMY,ChIJW56LOL4X2jERAix-AZzP-Sw,"188 Rivervale Dr, Singapore 543188",1.394739,103.9047244,5.0,4,http://www.jkd.com.sg/,9005 9173,boxing gym,"Punggol, Singapore",Gym,PUNGGOL,10475.132530236871,51758.0,True,True,True,Local
Kapap Academy,ChIJ-cr0WRIZ2jERxkYM8zb1rSw,"144 Robinson Rd, #05-01 Robinson Square, Singapore 068908",1.2781981,103.8482245,4.9,370,https://www.kapapsingapore.com/,9027 6996,kickboxing,"Chinatown, Singapore",Martial Arts,OUTRAM,9371.743688254664,5466.0,True,True,True,Local
Club Zest,ChIJUyE3O4QX2jERVULGUcZG4VQ,"1000 Toa Payoh N, Tower Block Level 7, Singapore 318994",1.3424303,103.8484683,0.0,0,,6319 1470,kickboxing,"Toa Payoh, Singapore",Martial Arts,TOA PAYOH,10071.888371896875,35569.0,False,True,False,Local
SUL Academy,ChIJJR-PTVoX2jERwJiVVUdrcgE,"60 Lor 23 Geylang, #06-01, Singapore 388384",1.3159817,103.8814347,5.0,54,http://www.sulacademy.com/,9853 7488,kickboxing,"Geylang, Singapore",Martial Arts,GEYLANG,9511.15418625147,34040.0,True,True,True,Local
Kapap Academy,ChIJHeSWOjQY2jERuDdym9a_W1Q,"82 Lor 23 Geylang, #02-02﻿, Singapore 388409",1.316739,103.881314,5.0,3,http://www.kapapsingapore.com/,9027 6996,kickboxing,"Geylang, Singapore",Martial Arts,GEYLANG,9511.15418625147,34040.0,True,True,True,Local
Xuan Sports @ Kallang Wave Mall,ChIJKwV83iAZ2jERdDSFupnK0Kg,"1 Stadium Pl, #02 - 01, Singapore 397628",1.3030941,103.8731915,4.9,160,http://www.xuansports.com/,9101 9240,kickboxing,"Kallang, Singapore",Martial Arts,KALLANG,10084.228177543,31046.0,True,True,True,Local
Zen Academy,ChIJpz7H9NcZ2jER0mxtntuQBh8,"61 Sims Dr, #01-131, Singapore 380061",1.3167277,103.8787483,4.2,42,https://www.zensch.com/,8815 0168,kickboxing,"Aljunied, Singapore",Martial Arts,GEYLANG,9511.15418625147,34040.0,True,True,True,Local
The Gentle Art Academy (East),ChIJvSeBJXMY2jERfxEKSts0BXE,"88 E Coast Rd, #02-08, Singapore 428788",1.3047255,103.9046894,4.8,81,https://www.thegentleartacademy.com/,6342 0113,kickboxing,"Katong, Singapore",Martial Arts,MARINE PARADE,12828.006335837315,13179.0,True,True,True,Local
Gracie Barra Singapore,ChIJ4W89-AoZ2jERoow33HoTK3Q,"37 Middle Rd, #04-00 UWEEI Building, Singapore 188946",1.297143,103.8554486,4.9,54,http://graciebarra.com.sg/,6931 3099,Brazilian Jiu-Jitsu,Singapore,Others,ROCHOR,0.0,0.0,True,True,True,General
Enjoy The Process — Jiu Jitsu Academy,ChIJA0WHPQAZ2jERLKPTb3t3QyQ,"311b Jln Besar, #03-01, Singapore 208970",1.311343,103.859107,5.0,23,http://www.etpbjj.com/,0813-2570-8458,Brazilian Jiu-Jitsu,Singapore,Others,KALLANG,10084.228177543,31046.0,True,True,True,General
The Gentle Art Academy (Novena),ChIJ4Wg9HqEZ2jER5zBz-eTBRvU,"Thomson Rd, #01-39 101, Singapore 307591",1.317325,103.8435452,5.0,12,https://thegentleartacademy.com/,6022 1734,Brazilian Jiu-Jitsu,Singapore,Others,NOVENA,12399.320787338742,15038.0,True,True,True,General
SAFRA Yishun Country Club,ChIJW75052sU2jERgZLDUbmKlPA,"60 Yishun Ave 4, Singapore 769027",1.4241052,103.8407026,4.3,3248,https://www.safra.sg/,6852 8200,Brazilian Jiu-Jitsu,"Changi Village, Singapore",Others,YISHUN,9019.018663760686,65153.0,True,True,True,Local
Singapore Sports School,ChIJ46Nqy7sT2jERtbm1OJhbUVo,"1 Champions Way, Singapore 737913",1.4265,103.7891347,4.5,80,http://www.sportsschool.edu.sg/,6766 0100,Brazilian Jiu-Jitsu,"Pulau Ayer Merbau, Singapore",Others,MANDAI,0.0,0.0,True,True,True,Local
Tanglin Community Club,ChIJia6dov4Z2jERjdeO3xGAx8U,"245 Whitley Rd, Singapore 297829",1.3233488,103.8268267,4.2,316,https://www.onepa.gov.sg/cc/tanglin-cc,6251 3922,Brazilian Jiu-Jitsu,"Pulau Ayer Merbau, Singapore",Others,NOVENA,12399.320787338742,15038.0,True,True,True,Local
Op Academy,ChIJ__2Ogm8V2jERjqt07q8-xZI,"BLK 259 Yishun Street 22, Singapore 760259",1.43494,103.8392064,0.0,0,http://opacademy.net/adult-self-defence/,9106 6242,BJJ academy,"Yishun, Singapore",Martial Arts,SIMPANG,0.0,0.0,True,True,False,Local
Authentic Ippon Academy (JESC),ChIJz2OYOvoP2jERa70bwLD6Bjc,"21 Jurong East Street 31, ActiveSG Sport Centre, Singapore 609517",1.3466886,103.7286449,0.0,0,https://authenticippon.com/contact/,9823 3632,BJJ academy,"Jurong East, Singapore",Martial Arts,TENGAH,0.0,0.0,True,True,False,Local
Singapore Budo Academy,ChIJL5gyuf4Z2jERGOFRxPEgNnc,"520 Sims Ave, #02-02, Singapore 387580",1.3161666,103.8892527,0.0,0,https://singaporebudo.com/,9006 8375,BJJ academy,"Geylang, Singapore",Martial Arts,GEYLANG,9511.15418625147,34040.0,True,True,False,Local
Tanglin Kendo Club,ChIJnYEywpAZ2jEROVjgmNSQj2k,"245 Whitley Rd, Tanglin Community Club, Singapore 297829",1.3235119,103.8269397,5.0,1,https://m.facebook.com/tanglinkendo/,,judo,Singapore,Martial Arts,NOVENA,12399.320787338742,15038.0,True,False,True,General
Sports Academy Of Wushu,ChIJlRwubA4T2jERP6s0WA3aMfs,"2 Sembawang Cres, #01-01, Singapore 757632",1.4448028,103.8197695,0.0,0,https://wushuacademy.org/,,judo,"Sembawang, Singapore",Martial Arts,SEMBAWANG,9856.022017546808,29749.0,True,False,False,Local
Toa Payoh Central Community Club,ChIJW7BptGEX2jERMRaGgsi2fNM,"93 Toa Payoh Central, Singapore 319194",1.3347998,103.8503959,4.3,124,,6252 1249,judo,"Toa Payoh, Singapore",Martial Arts,TOA PAYOH,10071.888371896875,35569.0,False,True,True,Local
JowGaKungFu Academy Singapore,ChIJFTU6ZQsX2jEREIGMyQUyx3c,"50 Serangoon North Ave 4, #06-18 First Centre, Singapore 555856",1.3755196,103.8757554,5.0,2,http://jowgakungfu.sg/,9109 3559,judo,"Serangoon, Singapore",Martial Arts,SERANGOON,12015.227503718394,32272.0,True,True,True,Local
Hitoshinkan Budo Academy,ChIJk_AsB-0V2jERqIO44NliN74,"9 Sentul Cres, Singapore 821313",1.4103163,103.9061147,5.0,1,https://hitoshinkan.wixsite.com/mysite,,judo,"Punggol, Singapore",Martial Arts,PUNGGOL,10475.132530236871,51758.0,True,False,True,Local
Bukit Batok East Community Club,ChIJz9f-20MQ2jERCEDdxLvPfFk,"268 Bukit Batok East Ave 4, #01-256, Singapore 650268",1.3493318,103.7591068,4.0,622,https://www.facebook.com/bukitbatokeast/,6565 9330,judo,"Bukit Batok, Singapore",Martial Arts,BUKIT BATOK,10063.376106008258,47468.0,True,True,True,Local
Wushu Cafe,ChIJdT2Hpe0R2jER2LAOsJ7W0S8,"Choa Chu Kang Street 53, Singapore",1.3912823,103.747286,5.0,1,,9863 6093,judo,"Choa Chu Kang, Singapore",Martial Arts,CHOA CHU KANG,10535.758835482462,52657.0,False,True,True,Local
KTMA Academy NeWest,ChIJ2X0GwucZ2jER1E3naP2AT24,"1 W Coast Dr, #01-08/09 NeWest, Singapore 128020",1.3161279,103.7573674,4.6,14,http://www.ktma.sg/,8727 7712,judo,"Clementi, Singapore",Martial Arts,CLEMENTI,11191.556927093045,26815.0,True,True,True,Local
Kim Seng Community Centre,ChIJx-6Lg4IZ2jERfBWa3SzWvA8,"570 Havelock Rd, Singapore 169640",1.2894666,103.8310287,4.1,308,,6272 3878,judo,"Tiong Bahru, Singapore",Martial Arts,SINGAPORE RIVER,0.0,0.0,False,True,True,Local
Tommy Carruthers Jeet Kune Do School,ChIJj6yLyzoY2jERdPM4oE2-TM8,"The Atrix Building #02-03, 82 Lor 23 Geylang, Singapore 388409",1.31675,103.881384,5.0,1,http://www.jkd.com.sg/tommy-carruthers-singapore/,9005 9173,judo,"Geylang, Singapore",Martial Arts,GEYLANG,9511.15418625147,34040.0,True,True,True,Local
Tampines West Community Club,ChIJW2RO4zE92jERB0zfdzfmxzc,"5 Tampines Ave 3, #01 05, Singapore 529705",1.3488917,103.9355738,4.4,365,,6788 1912,taekwondo,"Tampines, Singapore",Martial Arts,PAYA LEBAR,0.0,0.0,False,True,True,Local
Clementi Community Centre,ChIJq6qq2oUa2jERdIXhE3knPCM,"220 Clementi Ave 4, Singapore 129880",1.3189456,103.7680816,4.2,902,,6776 1670,taekwondo,"Clementi, Singapore",Martial Arts,CLEMENTI,11191.556927093045,26815.0,False,True,True,Local
Time Park,ChIJL2uQ_6092jERUjGwj5hMdJo,"417 Pasir Ris Drive 6, Block 417, Singapore 510417",1.3726521,103.9551028,4.6,22,,,taekwondo,"Pasir Ris Park, Singapore",Martial Arts,PASIR RIS,11846.999197728956,40510.0,False,False,True,Local
The Kalari Academy,ChIJM9VrtUoY2jER3AagP3VhYCA,"448 Serangoon Rd, Singapore 218138",1.3131529,103.8566265,5.0,76,https://www.thekalariacademy.com/,9451 2131,karate,Singapore,Martial Arts,KALLANG,10084.228177543,31046.0,True,True,True,General
Pub34,ChIJh2W6NUEZ2jERzyMwbQSd9vg,"34 Perak Rd, Singapore 208150",1.3043689,103.853088,0.0,0,,8179 3434,karate,"Little India, Singapore",Martial Arts,ROCHOR,0.0,0.0,False,True,False,Local
Elias Mall,ChIJO78EpL492jERuWZcaOf26DA,"625 Elias Rd, Singapore 510625",1.3783052,103.9418722,3.9,2342,https://www.eliasmall.com/,6582 9767,karate,"Pasir Ris, Singapore",Martial Arts,PASIR RIS,11846.999197728956,40510.0,True,True,True,Local
Wan Wu Wushu Academy (Canberra),ChIJ8_oaww0V2jERUMdEENDFQoU,"131 Canberra Cres, Singapore 752131",1.4443863,103.8312507,0.0,0,https://www.wanwusports.com/,9146 8890,karate,"Sembawang, Singapore",Martial Arts,SEMBAWANG,9856.022017546808,29749.0,True,True,False,Local
Cheng San Community Club,ChIJPYyYbeYW2jERzWoaDgHfUhw,"435 Ang Mo Kio Ave 10, Singapore 560435",1.37198,103.8493215,4.1,490,https://www.onepa.gov.sg/cc/cheng-san-cc,6458 8222,karate,"Ang Mo Kio, Singapore",Martial Arts,ANG MO KIO,9398.25493644068,47200.0,True,True,True,Local
Paya Lebar Kovan Community Club,ChIJjZmLx7YX2jERHvqG7bqaBpE,"207 Hougang St 21, Singapore 530207",1.3576889,103.8864475,4.1,215,,6284 4261,karate,"Hougang, Singapore",Martial Arts,HOUGANG,10153.063186096142,65133.0,False,True,True,Local
Hillview Community Club,ChIJAcs3hFIQ2jERyK9SYBlkYKc,"1 Hillview Rise, #01-01, Singapore 667970",1.361984,103.7642603,4.2,377,,6515 0075,karate,"Bukit Batok, Singapore",Martial Arts,BUKIT PANJANG,10223.16462037638,38525.0,False,True,True,Local
Zhenghua Community Club,ChIJn3ut854R2jERfkj909V6YhA,"640A Senja Cl, Singapore 671640",1.3868358,103.7717063,3.9,514,https://zhenghua.pa.gov.sg/,6310 6702,karate,"Bukit Panjang, Singapore",Martial Arts,CHOA CHU KANG,10535.758835482462,52657.0,True,True,True,Local
Taiping Institute,ChIJJ1UmdQcY2jER7hLAswL15c0,"81 Marine Parade Central, Singapore 440081",1.302434,103.9072633,0.0,0,http://taipinginstitute.com/,,karate,"Marine Parade, Singapore",Martial Arts,MARINE PARADE,12828.006335837315,13179.0,True,False,False,Local
Nee Soon Central Community Club,ChIJq7C_6m8U2jERTnac8Wp_HgY,"1 North Point Dr, Singapore 768019",1.4265156,103.8359368,4.3,529,https://www.onepa.gov.sg/cc/nee-soon-central-cc,6752 7687,Krav Maga,"Yishun, Singapore",Martial Arts,YISHUN,9019.018663760686,65153.0,True,True,True,Local
Gong Defense Academy,ChIJkdFKTgUX2jERAwGdksuiTbQ,"8 Ubi Rd 2, #08-15 Zervex, Singapore 408538",1.3340799,103.8952776,5.0,1,,9368 0388,Krav Maga,"Paya Lebar, Singapore",Martial Arts,GEYLANG,9511.15418625147,34040.0,False,True,True,Local
Pendekar Temasek Academy,ChIJfUOz4wEX2jERR3GlJxDfNZ8,"60 Kaki Bukit Pl, Lobby B #07-02 Exit B, Singapore 415979",1.3344637,103.9048833,5.0,62,,8951 9401,silat,Singapore,Martial Arts,PAYA LEBAR,0.0,0.0,False,True,True,General
Sultan Mosque,ChIJb6xq2bAZ2jERE1P6sVKtofw,"3 Muscat St, Singapore 198833",1.3022854,103.8589636,4.7,12722,https://www.sultanmosque.sg/,6293 4405,silat,"Kampong Glam, Singapore",Martial Arts,ROCHOR,0.0,0.0,True,True,True,Local
Teck Ghee Community Club,ChIJgzz7dR0X2jERCfhmeqRQOtw,"861 Ang Mo Kio Ave 10, Singapore 569734",1.363096,103.853577,4.4,863,http://www.pa.gov.sg/,6456 7123,silat,"Ang Mo Kio, Singapore",Martial Arts,SERANGOON,12015.227503718394,32272.0,True,True,True,Local
Yio Chu Kang Community Club,ChIJFdT088AW2jERv4-U3wAxo0E,"50 Ang Mo Kio St. 61, Singapore 569163",1.3815595,103.8414105,4.0,401,https://www.onepa.gov.sg/cc/yio-chu-kang-cc,6457 0414,silat,"Ang Mo Kio, Singapore",Martial Arts,ANG MO KIO,9398.25493644068,47200.0,True,True,True,Local
Toa Payoh South Community Club,ChIJk5MlfXoX2jERuQq2GKQ5PRQ,"1999 Lor 8 Toa Payoh, Singapore 319258",1.3349224,103.8593405,4.0,163,,6259 6602,silat,"Toa Payoh, Singapore",Martial Arts,TOA PAYOH,10071.888371896875,35569.0,False,True,True,Local
太陽宮 Tai Yeong Kon Temple,ChIJzXxqhWUZ2jERimou6gAWi5k,"85A Silat Rd, Tai Yeong Kan Temple, Singapore 168851",1.2775946,103.8289212,4.7,23,,6271 0093,silat,"Redhill, Singapore",Martial Arts,BUKIT MERAH,10092.468693505003,45358.0,False,True,True,Local
Chia Leng Kong Heng Kang Tian Temple,ChIJlSUzi2QZ2jERgYRI4B9FGfg,"85A Silat Rd, Singapore 168871",1.277668,103.8288837,5.0,4,,6273 7877,silat,"Tiong Bahru, Singapore",Martial Arts,BUKIT MERAH,10092.468693505003,45358.0,False,True,True,Local
Henderson Community Club,ChIJOZIFa34Z2jERL9_IhYLjUH4,"500 Bukit Merah Vw, Singapore 159682",1.2858271,103.823121,4.1,339,,6271 0168,silat,"Tiong Bahru, Singapore",Martial Arts,RIVER VALLEY,15695.421208530806,3376.0,False,True,True,Local
Central Sikh Gurdwara Board,ChIJG5TohGUZ2jERZyALj5bxBwE,"8 Jalan Bukit Merah, Singapore 169541",1.2771055,103.8324966,4.9,22,,6221 5773,silat,"Tiong Bahru, Singapore",Martial Arts,OUTRAM,9371.743688254664,5466.0,False,True,True,Local
Sikh Centre,ChIJayMnhWUZ2jER-Hjnjxq6UrM,"9 Jalan Bukit Merah, Silat Road Sikh Temple, Singapore 169543",1.2770449,103.8327735,4.8,34,,6327 2004,silat,"Outram, Singapore",Martial Arts,OUTRAM,9371.743688254664,5466.0,False,True,True,Local
PanCare Medical (Bukit Merah),ChIJww0n8DYZ2jERgEHjaWGUp5w,"147 Silat Ave, #01-32 Silat Estate, Singapore 160147",1.2773778,103.8311502,4.5,53,https://pancaremedical.sg/,6970 2557,silat,"Bukit Merah, Singapore",Martial Arts,OUTRAM,9371.743688254664,5466.0,True,True,True,Local
Kallang Community Club,ChIJVVVVBdIZ2jERvblaxcflgVc,"45 Boon Keng Rd, Singapore 339771",1.3179854,103.8624274,4.0,550,,6298 4582,silat,"Kallang, Singapore",Martial Arts,KALLANG,10084.228177543,31046.0,False,True,True,Local
Geylang West Community Club,ChIJOa5WOTIY2jER3vTbKwtyREo,"1205 Upper Boon Keng Rd, Singapore 387311",1.3156448,103.8724633,3.9,249,,6748 3024,silat,"Boon Keng, Singapore",Martial Arts,KALLANG,10084.228177543,31046.0,False,True,True,Local
Joo Chiat Community Club,ChIJ0Rz6Sg0Y2jERmgd6ZjD41YE,"405 Joo Chiat Rd, Singapore 427633",1.3074361,103.904113,3.9,173,,6344 1926,silat,"Marine Parade, Singapore",Martial Arts,MARINE PARADE,12828.006335837315,13179.0,False,True,True,Local
Marine Parade Toastmasters Club,ChIJ5TDCY3QY2jERsTbanFoZl7M,"405 Joo Chiat Rd, Room 301, Singapore 427633",1.3074588,103.9041096,4.8,9,https://marineparadetoastmasters.wordpress.com/,9839 0857,silat,"Marine Parade, Singapore",Martial Arts,MARINE PARADE,12828.006335837315,13179.0,True,True,True,Local
Rodalink Jurong East Bicycle Megastore,ChIJ-yLjZ3UQ2jERlWfmHkGFFm0,"18 Boon Lay Way, #01-98D Tradehub 21, Singapore, 609966",1.3286644,103.751975,4.5,1123,https://www.rodalink.com/sg/,6795 4320,spin studio,"Jurong East, Singapore",Fitness Studio,CLEMENTI,11191.556927093045,26815.0,True,True,True,Local
Cycle School SG - Learn to Cycle,ChIJocchM3oZ2jERAg2Pzy18s0Q,"26 Jln Membina, Singapore 161026",1.2826676,103.8255796,4.9,978,http://www.cycleschoolsg.com/,9755 2844,spin studio,"Tiong Bahru, Singapore",Fitness Studio,SINGAPORE RIVER,0.0,0.0,True,True,True,Local
The Ripple Club Katong,ChIJu4Tv-HoZ2jERPKGOtnhKP4g,"86 E Coast Rd, Hotel Indigo Katong, Singapore 428788",1.3044294,103.9047046,5.0,9,https://therippleclub.fit/,9698 9202,spin studio,"Marine Parade, Singapore",Fitness Studio,MARINE PARADE,12828.006335837315,13179.0,True,True,True,Local
Pulau Ubin no. 25 Bicycle Rental,ChIJlQRnbK8_2jER44WO5xQi5Us,"Jalan Pekan Ubin, Singapore",1.4026398,103.970224,3.8,40,https://www.facebook.com/25Pulauubinbicyclerental/,9879 8237,spin studio,"Pulau Ubin, Singapore",Fitness Studio,PASIR RIS,11846.999197728956,40510.0,True,True,True,Local
45C Bicycle Rental,ChIJIU84DEQ_2jERJGmrtd2nEn4,"Jln Endut Senin, Singapore",1.4028696,103.9699615,2.8,20,,9430 4972,spin studio,"Pulau Ubin, Singapore",Fitness Studio,PASIR RIS,11846.999197728956,40510.0,False,True,True,Local
Comfort Bicycle Rental & Trading,ChIJ33n4kag92jER-nUN3dhtcSI,"18 Pulau Ubin, Singapore 508273",1.4025357,103.9704529,1.8,28,,6545 0163,spin studio,"Pulau Ubin, Singapore",Fitness Studio,PASIR RIS,11846.999197728956,40510.0,False,True,True,Local
The Ripple Club Clark Quay,ChIJ86YmoqIZ2jERQCxpwUfygDE,"20 Merchant Rd, Paradox Merchant Court, Singapore 058281",1.2884804,103.8460664,5.0,8,https://therippleclub.fit/,9698 9202,spin studio,"Pulau Tekong Besar, Singapore",Fitness Studio,OUTRAM,9371.743688254664,5466.0,True,True,True,Local
Rodalink East Coast Bicycle Superstore,ChIJ_dCc17si2jER0pYQKsql7Dw,"166B Upper E Coast Rd, Singapore 455270",1.3137541,103.9319108,4.8,974,https://www.rodalink.com/sg/rodalink-east-coast,6242 8330,rhythm cycling,"Bedok, Singapore",Cycling/Spin,BEDOK,10710.615373350993,78532.0,True,True,True,Local
Bike Stop @ East Coast Park Area E2 (Coastline Leisure),ChIJLTh2WZUi2jER98cYww3Qiig,"1220 ECP, Singapore 468960",1.3071847,103.9365023,4.2,783,http://coastlineleisure.com.sg/,6443 3489,rhythm cycling,"Bedok, Singapore",Cycling/Spin,BEDOK,10710.615373350993,78532.0,True,True,True,Local
Bike Stop @D'Resort (Coastline Leisure),ChIJhXWA3CM92jERp5ZG3bxkxRU,"1 Pasir Ris Cl, #01-200, Singapore 519599",1.3800079,103.9552324,4.6,14,http://www.coastlineleisure.com.sg/,8222 3193,rhythm cycling,"Pasir Ris, Singapore",Cycling/Spin,PASIR RIS,11846.999197728956,40510.0,True,True,True,Local
"Cycollective On-Site Doorstep Bicycle Repair, Bicycle Rental, Preloved/2nd Hand Bicycle. By Appointment only",ChIJ56nhkQkT2jERgjRxLIrEZHI,"850 Woodlands Street 82, By Appointment Basis, Singapore 730850",1.4409515,103.79207,4.6,38,http://cycollective.sg/,8023 1859,rhythm cycling,"Woodlands, Singapore",Cycling/Spin,WOODLANDS,9184.241848443537,70416.0,True,True,True,Local
TMS Bikes | Motorcycle Rental & Workshop,ChIJ1WBtbZkZ2jERRKHX9HsafjQ,"101 Woodlands Ave 12, #07-22A Polaris @ Woodlands, Singapore 737719",1.4404828,103.8089957,4.7,85,https://www.tmsbikes.com/,6970 9667,rhythm cycling,"Woodlands, Singapore",Cycling/Spin,MANDAI,0.0,0.0,True,True,True,Local
Bicycle repair centre by 7cycleworkshop,ChIJnZ6sn3wU2jERKkYPmj7vg0w,"Yishun Street 71, unit 01-274 Blk 716, Singapore 760716",1.4264076,103.827649,4.2,130,https://sg.carousell.com/bicyclecenter/,9005 5660,rhythm cycling,"Yishun, Singapore",Cycling/Spin,YISHUN,9019.018663760686,65153.0,True,True,True,Local
Jurong Spring Community Club,ChIJ7zhb19wP2jERictRTHw9CFo,"8 Jurong West Street 52, Singapore 649296",1.3484263,103.717966,4.1,493,,6562 4066,rhythm cycling,"Jurong West, Singapore",Cycling/Spin,JURONG WEST,9632.399985216842,74409.0,False,True,True,Local
Whisk & Paddle (Bt Gombak Park),ChIJnWSfmy8R2jER6liptoRmWTc,"816 Bukit Batok West Ave. 5, #01-01, Singapore 659089",1.3673836,103.7510639,4.1,670,http://whiskandpaddle.com.sg/,6550 2330,rhythm cycling,"Bukit Batok, Singapore",Cycling/Spin,BUKIT BATOK,10063.376106008258,47468.0,True,True,True,Local
R&M Bicycle Service,ChIJldmp30Yb2jERsArs8--dvxY,"352 Clementi Ave 2, #01-121 Shopping Centre, Singapore 120352",1.3145587,103.7715226,4.8,30,,9038 0354,rhythm cycling,"Clementi, Singapore",Cycling/Spin,CLEMENTI,11191.556927093045,26815.0,False,True,True,Local
Cycle Project Store,ChIJ3QAUTXcZ2jERpgK3fuxKKgI,"57 Eng Hoon St, Unit #01-80 Block 57, Singapore 160057",1.2848749,103.8335265,4.8,110,http://www.cycleprojectstore.com/,9457 6343,rhythm cycling,"Tiong Bahru, Singapore",Cycling/Spin,SINGAPORE RIVER,0.0,0.0,True,True,True,Local
Spartan Rides Sg (Bike Specialist),ChIJaaNdVmYb2jERDHcArItsN9Y,"44 Holland Dr, #01-11 Market & Food Centre, Singapore 270044",1.308133,103.792731,5.0,30,http://spartanridessg.com/,8029 0180,indoor cycling,"Kampong Glam, Singapore",Cycling/Spin,QUEENSTOWN,10724.055500982318,28504.0,True,True,True,Local
Cyclist Park,ChIJ1ePkdR8Z2jERwk1GPrMEhoU,"E Coast Park Service Rd, East Coast Park, Singapore 449880",1.3042617,103.9238781,4.6,122,https://www.nparks.gov.sg/gardens-parks-and-nature/parks-and-nature-reserves/east-coast-park/cyclist-park,,indoor cycling,"Bedok, Singapore",Cycling/Spin,BEDOK,10710.615373350993,78532.0,True,False,True,Local
Indoor Bicycle Parking @ Bukit Canberra ActiveSG Sports Hall,ChIJU_Bqc1gV2jERoQI7VxZStgQ,"21 Canberra Link, Singapore 752350",1.4489143,103.8240399,0.0,0,,,indoor cycling,"Sembawang, Singapore",Cycling/Spin,SEMBAWANG,9856.022017546808,29749.0,False,False,False,Local
Bicycle Parking @ Sembawang Hot Spring Park,ChIJ36a79JAV2jERqGt2z0zq15A,"Mandai, Singapore",1.4346173,103.8235024,5.0,1,,,indoor cycling,"Sembawang, Singapore",Cycling/Spin,MANDAI,0.0,0.0,False,False,True,Local
Sheltered Bicycle Parking Area @ Yishun MRT (Exit C/D),ChIJQS8kEjEV2jERQgOiCceg9Ic,"Yishun Ave 2, B2-133, Singapore 769098",1.4285547,103.8349515,5.0,1,,,indoor cycling,"Yishun, Singapore",Cycling/Spin,YISHUN,9019.018663760686,65153.0,False,False,True,Local
Ang Mo Kio Indoor Terrarium,ChIJ2VwEbOIW2jER_26mo4OGl4U,Singapore,1.364836,103.8523935,4.5,2,,,indoor cycling,"Ang Mo Kio, Singapore",Cycling/Spin,SERANGOON,12015.227503718394,32272.0,False,False,True,Local
Willow. Bike. Art. Cafe,ChIJEUn07fwW2jERNJvw5cL89x0,"456 Ang Mo Kio Ave 10, #01-1570, Singapore 560456",1.367206,103.8585374,4.2,79,http://www.facebook.com/WillowBikeArtCafe,9673 9707,indoor cycling,"Ang Mo Kio, Singapore",Cycling/Spin,SERANGOON,12015.227503718394,32272.0,True,True,True,Local
Kiztopia Club @ Punggol,ChIJq8ZHskYV2jERLWDsE4cFHww,"85 Punggol Central, #01-01/02/03/04, Singapore 828726",1.4072937,103.9029726,4.9,3892,,8201 0393,indoor cycling,"Punggol, Singapore",Cycling/Spin,PUNGGOL,10475.132530236871,51758.0,False,True,True,Local
Punggol Regional Sports Centre (U/C),ChIJmcKA4HMV2jERmWSomEx6WtY,"11 Sentul Cres, Singapore 828656",1.4084829,103.9067354,3.9,33,http://punggoltown.com/,,indoor cycling,"Punggol, Singapore",Cycling/Spin,PUNGGOL,10475.132530236871,51758.0,True,False,True,Local
Anchorvale Community Club,ChIJgz37DHQW2jERqjPlPqDQ9cE,"59 Anchorvale Rd, Singapore 544965",1.3967802,103.887063,4.4,983,https://www.pa.gov.sg/Our-Network/Community-Clubs/Locate-CC/detail/Anchorvale-Community-Club,6489 4959,indoor cycling,"Sengkang, Singapore",Cycling/Spin,SENGKANG,10549.841220784238,72478.0,True,True,True,Local
BikeCraft One Bicycle Servicing and Cafe,ChIJoWjnj7wR2jERkxMCsx7-RC4,"80 Rifle Range Rd, Singapore 588386",1.3408306,103.77953,4.8,167,https://www.instagram.com/bikecraft1sg/?hl=en,8788 2943,indoor cycling,"Bukit Panjang, Singapore",Cycling/Spin,BUKIT TIMAH,15710.218884329815,20472.0,True,True,True,Local
Kallang Park Connector,ChIJxZwgg1kZ2jERfsCcuEg0JC4,"998 Bendemeer Rd, Singapore 339945",1.3221012,103.8676558,4.4,112,https://www.nparks.gov.sg/gardens-parks-and-nature/park-connector-network/kallang-pc,,indoor cycling,"Kallang, Singapore",Cycling/Spin,KALLANG,10084.228177543,31046.0,True,False,True,Local
Decathlon - City Square Mall,ChIJL-Q4ocgZ2jER63djtKvigmA,"180 Kitchener Rd, #02 - 03, Singapore 208539",1.3114806,103.8564198,4.6,5996,https://www.decathlon.sg/s/sports-stores/city-square-mall?utm_source=google-my-business&utm_medium=organic&utm_campaign=gmb,,indoor cycling,"Dakota, Singapore",Cycling/Spin,KALLANG,10084.228177543,31046.0,True,False,True,Local
Bedok Reservoir Park,ChIJw62n3Vo92jERl8c1cg9hXzE,"760 Bedok Reservoir Rd, Singapore 479245",1.3391413,103.922706,4.5,3795,https://www.nparks.gov.sg/contact-us,1800 471 7300,indoor cycling,"Bedok Reservoir, Singapore",Cycling/Spin,PAYA LEBAR,0.0,0.0,True,True,True,Local
The Boring Bicycle Clubhouse,ChIJh90Fd6s92jERkG6lpR_KyiE,"28 Senang Cres, #03-01 BizHub28, Singapore 416601",1.3274171,103.9182282,5.0,22,http://www.theboringbicyclecompany.com/,8922 8756,indoor cycling,"Bedok Reservoir, Singapore",Cycling/Spin,BEDOK,10710.615373350993,78532.0,True,True,True,Local
Pasir Ris Park PCN,ChIJdW0FcZ492jERNGCGfn_-tIs,Singapore,1.3878786,103.9390916,4.9,9,https://pcn.nparks.gov.sg/the-pcn-experience/glossary/,,indoor cycling,"Pasir Ris Park, Singapore",Cycling/Spin,PASIR RIS,11846.999197728956,40510.0,True,False,True,Local
Pasir Ris Park Adventure Playground,ChIJuY8mPsc92jERdf13nPQ8Pq4,"110 Pasir Ris Rd, Singapore 519113",1.3835534,103.9448345,4.6,596,http://www.nparks.gov.sg/,,indoor cycling,"Pasir Ris Park, Singapore",Cycling/Spin,PASIR RIS,11846.999197728956,40510.0,True,False,True,Local
Island Run Club,ChIJIXbDUmMZ2jERfpUsdElcXfY,"1 Kim Seng Promenade, #01-146 Great World, Singapore 237994",1.293984,103.832088,5.0,84,https://www.islandrunclub.com/,8085 5069,run club,Singapore,Others,RIVER VALLEY,15695.421208530806,3376.0,True,True,True,General
HQDE Run Club,ChIJAe-CSY0b2jERD76yq3bcB1o,"1 Fusionopolis Pl, #15-10, Singapore 138522",1.2999207,103.7882673,5.0,1,,9273 3923,run club,Singapore,Others,QUEENSTOWN,10724.055500982318,28504.0,False,True,True,General
Hollandse Club,ChIJO3xl2qsQ2jERGD-6BnHFtEA,"22 Camden Park, Singapore 299814",1.3298023,103.8164134,4.2,325,http://www.hollandseclub.org.sg/,6464 5225,run club,Singapore,Others,NOVENA,12399.320787338742,15038.0,True,True,True,General
Tanglin Club,ChIJLcEYfPIZ2jERd4wswFbCz_4,"5 Stevens Rd, Singapore 257814",1.309796,103.832335,4.5,1061,http://www.tanglinclub.org/,6622 0555,run club,Singapore,Others,NEWTON,0.0,0.0,True,True,True,General
Singapore Polo Club,ChIJXTs2IbsX2jER1jcz8vVC47g,"80 Mount Pleasant Rd, Singapore 298334",1.3322445,103.8362657,4.3,461,http://www.singaporepoloclub.org/,6854 3999,run club,Singapore,Others,NOVENA,12399.320787338742,15038.0,True,True,True,General
East Coast Park parkrun,ChIJ97uEC7AZ2jER6aLd9dKQSKw,"Cp B1, Singapore",1.2949434,103.8931212,5.0,21,https://www.parkrun.sg/eastcoastpark/,,run club,Singapore,Others,MARINE PARADE,12828.006335837315,13179.0,True,False,True,General
SCC Rugby Academy,ChIJ-buPHsgb2jERW-EqiJl0_pg,"71G Loewen Rd, Singapore 248846",1.301648,103.810335,4.8,44,https://sccrugbyacademy.com/,,run club,Singapore,Others,TANGLIN,16323.82970252404,6656.0,True,False,True,General
Paragon Club Members' Lounge,ChIJc8pOz2QZ2jER6oaFfMolHi4,"290 Orchard Rd, Level 1, Singapore 238859",1.3044943,103.835972,4.6,16,https://www.paragon.com.sg/promotions/pgc-website-paragon-club-members-lounge,,run club,"Orchard Road, Singapore",Others,NEWTON,0.0,0.0,True,False,True,Local
K Bowling Club,ChIJvc9hvfwZ2jERpcMQVuhNni8,"313 Orchard Road, #03-27, 313@Somerset, 313 Orchard Rd, #03 - 27, Singapore 238895",1.3008856,103.8383582,4.1,593,https://www.kbowlingclub.com/,6737 5313,run club,"Orchard Road, Singapore",Others,RIVER VALLEY,15695.421208530806,3376.0,True,True,True,Local
The Club,ChIJgbj7RAQZ2jERpqImPoeOUHc,"10 Bayfront Avenue, Marina Bay Sands, Hotel, Lobby, Tower 1, Singapore 018956",1.2824615,103.8600908,4.4,315,https://www.marinabaysands.com/restaurants/the-club.html/?utm_source=google&utm_medium=GMB&utm_campaign=theclub_info_main,6688 5568,run club,"Marina Bay, Singapore",Others,DOWNTOWN CORE,14925.66,1350.0,True,True,True,Local
Avenue Lounge,ChIJzeE0HK0Z2jERe4FS4lO4Phg,"10 Bayfront Avenue, Marina Bay Sands The Shoppes, #B1-67 Main entrance on, Bayfront Ave, Level 1 behind Theatres Bus Stop, along, Singapore 018956",1.2851522,103.8605316,3.8,386,https://taogroup.com/venues/avenue-singapore/?utm_source=google&utm_medium=GMB&utm_campaign=avenue_info_main,6688 8680,run club,"Marina Bay, Singapore",Others,DOWNTOWN CORE,14925.66,1350.0,True,True,True,Local
Hup San Social Club,ChIJnf-0YAAZ2jERmMaavcjazDU,"98 Club St, Singapore 069467",1.2816202,103.8454732,4.8,31,https://www.clubstreetlaundry.com/hup-san-social-club,,run club,"Chinatown, Singapore",Others,OUTRAM,9371.743688254664,5466.0,True,False,True,Local
Clubhouse SG,ChIJUxyy6R0Z2jERGEToqLb0Pj4,"168, #01-07 Robinson Rd, Capital Tower, Singapore 068912",1.2777857,103.8479386,4.8,128,http://www.clubhousesg.com/,6327 8045,run club,"Chinatown, Singapore",Others,OUTRAM,9371.743688254664,5466.0,True,True,True,Local
Club Rainbow (Singapore),ChIJ4YoMpQwZ2jERpN6w4LM3ej0,"538 Upper Cross St, #05-263/269, Singapore 050538",1.285205,103.845761,4.5,16,https://www.clubrainbow.org/contact-us,6377 1789,run club,"Chinatown, Singapore",Others,OUTRAM,9371.743688254664,5466.0,True,True,True,Local
The Otherside – Rooftop Craft Bar & Natural Wine (Telok Ayer / Chinatown),ChIJKyWPU_QZ2jERjAHHj9KCql0,"7 Erskine Rd, Singapore 069320",1.2811131,103.845168,4.9,125,https://www.instagram.com/theothersidesg/,9119 5553,run club,"Chinatown, Singapore",Others,OUTRAM,9371.743688254664,5466.0,True,True,True,Local
Enclavebar,ChIJAUfy32sZ2jERBgYah675Jj8,"55A Neil Rd, #2-00, Singapore 088892",1.2795647,103.8425105,4.7,43,,8386 4881,run club,"Chinatown, Singapore",Others,OUTRAM,9371.743688254664,5466.0,False,True,True,Local
Singapore Recreation Club,ChIJG54AV6YZ2jEREJaczuWecw8,"Connaught Dr, B, Singapore 179682",1.2921094,103.8537784,4.3,1092,http://www.src.org.sg/,6595 0500,run club,"Chinatown, Singapore",Others,DOWNTOWN CORE,14925.66,1350.0,True,True,True,Local
minnale2.0 night club,ChIJfxcUZJEZ2jER7xLKNoK7ri8,"68 Dunlop St, Singapore 209396",1.3052484,103.8534453,5.0,1,,9886 8854,run club,"Little India, Singapore",Others,ROCHOR,0.0,0.0,False,True,True,Local
Olibier Rooftop Bar,ChIJVxW_8eYZ2jERrzzqKMCJABM,"70A Dunlop St, Singapore 209398",1.3053811,103.853339,4.8,124,,8363 0391,run club,"Little India, Singapore",Others,ROCHOR,0.0,0.0,False,True,True,Local
Dragons Rugby Club,ChIJm9ZnZ1w92jER1s6FPng48j4,"1 Tampines St. 73, Singapore 528704",1.3585296,103.9318392,5.0,6,http://www.dragonsrugbyclub.com/,9030 6571,run club,"Tampines, Singapore",Others,PAYA LEBAR,0.0,0.0,True,True,True,Local
Eco Community Garden @ Our Tampines Hub,ChIJ3y9fXhI92jERRl6yaXEq_q0,"51 Tampines Ave 4, Singapore 520940 Tampines Ave 4, Singapore 520940",1.3524587,103.9411827,4.2,12,https://www.nparks.gov.sg/contact-us,,run club,"Tampines, Singapore",Others,TAMPINES,10327.216990999425,72662.0,True,False,True,Local
Bedok Reservoir parkrun,ChIJbdS47IM92jERsDYaTkCKOY0,Singapore,1.3389301,103.9219761,4.6,7,https://www.parkrun.sg/bedokreservoir/,,run club,"Bedok, Singapore",Others,PAYA LEBAR,0.0,0.0,True,False,True,Local
Pasir Ris Park Native Lawn,ChIJddXa70A92jER_DP2vi9QyI4,"Pasir Ris, Singapore",1.3784354,103.9493859,4.5,2,,,run club,"Pasir Ris, Singapore",Others,PASIR RIS,11846.999197728956,40510.0,False,False,True,Local
Aranda Country Club,ChIJ33KPErE92jERGEtLctQmyXg,"60 Pasir Ris Dr 3, Singapore 519497",1.3761439,103.9536304,3.9,538,http://www.arandaclub.org.sg/,6584 6811,run club,"Pasir Ris, Singapore",Others,PASIR RIS,11846.999197728956,40510.0,True,True,True,Local
Pasir Ris Park Mangrove Boardwalk,ChIJebER37A92jERTCNO07FykGo,"60 Pasir Ris Dr 3, Singapore 519497",1.3778816,103.9524912,4.6,378,,,run club,"Pasir Ris, Singapore",Others,PASIR RIS,11846.999197728956,40510.0,False,False,True,Local
Pasir Ris Carpark F,ChIJF5SK08A92jERa1xhKQORLqs,"133 Pasir Ris Rd, Singapore 519149",1.3843563,103.9426012,4.5,28,,,run club,"Pasir Ris, Singapore",Others,PASIR RIS,11846.999197728956,40510.0,False,False,True,Local
Changi Sailing Club,ChIJGUXEBxg82jER7SUZMZqgPOA,"32 Netheravon Rd, Singapore 508508",1.3923333,103.9796583,4.3,790,http://www.csc.org.sg/,6545 2876,run club,"Changi, Singapore",Others,PASIR RIS,11846.999197728956,40510.0,True,True,True,Local
Changi Beach Club,ChIJwxMSITs82jERsbEYqi4g_B4,"2 Andover Rd, Singapore 509984",1.3902019,103.9755178,4.0,420,http://changibc.org.sg/,6546 5215,run club,"Changi, Singapore",Others,PASIR RIS,11846.999197728956,40510.0,True,True,True,Local
Marsiling Community Club,ChIJq6qquv8S2jERFxNiPdcRSiY,"100 Admiralty Rd, Singapore 739980",1.4408695,103.7737248,4.1,575,,6269 6768,run club,"Woodlands, Singapore",Others,WOODLANDS,9184.241848443537,70416.0,False,True,True,Local
Woodlands Galaxy Community Club,ChIJH8K10p8T2jERZ1EVYVpGL8c,"31 Woodlands Ave 6, Singapore 738991",1.4390853,103.8026836,4.3,987,,6366 2218,run club,"Woodlands, Singapore",Others,MANDAI,0.0,0.0,False,True,True,Local
Sembawang Country Club,ChIJE2JYEvQT2jERWjxQ8t7lN98,"249 Sembawang Rd, Singapore 758352",1.4172148,103.8155584,4.2,821,http://www.sembawanggolf.org.sg/,6751 0320,run club,"Sembawang, Singapore",Others,MANDAI,0.0,0.0,True,True,True,Local
Canberra Community Club,ChIJFwBnxn0T2jERFDDiOhsMo_U,"2 Sembawang Cres, #01-01, Singapore 757632",1.4449347,103.8197721,4.1,1044,,6755 6369,run club,"Sembawang, Singapore",Others,SEMBAWANG,9856.022017546808,29749.0,False,True,True,Local
SAF Yacht Club,ChIJ0a7VuVcT2jERRqpeHSzVgmQ,"43 Admiralty Rd W, Singapore 759962",1.469808,103.8196689,4.1,584,http://www.safyc.org.sg/,6758 3359,run club,"Sembawang, Singapore",Others,SEMBAWANG,9856.022017546808,29749.0,True,True,True,Local
8 Degree Lounge - Orchid Country Club,ChIJE2AXorsV2jERAQhKqilqpec,"1 Orchid Club Road, #02-30, Orchid Country Club, Social Club House, Singapore 769162",1.4110305,103.8444911,4.6,132,,6513 0268,run club,"Yishun, Singapore",Others,YISHUN,9019.018663760686,65153.0,False,True,True,Local
Orchid Country Club,ChIJAXBY2D0U2jERt1mVvb3Jr_I,"1 Orchid Club Rd, Singapore 769162",1.411778,103.8443315,4.3,4411,https://www.orchidclub.com/,6755 9811,run club,"Yishun, Singapore",Others,YISHUN,9019.018663760686,65153.0,True,True,True,Local
First Kick Academy,ChIJW-ulWFsV2jERNERHjhtPPM4,"1 Orchid Club Rd, Level 3 Orchid Country Club, Singapore 769162",1.4105146,103.8424324,4.8,38,http://www.fka.sg/,9101 0666,run club,"Yishun, Singapore",Others,YISHUN,9019.018663760686,65153.0,True,True,True,Local
"Red Dynasty Paintball Park (Orchid Country Club, Yishun)",ChIJU36Xi5MQ2jERqBNCfY0amGY,"1 Orchid Club Road (Opposite (on the right when entering OCC, the guard house, Singapore 769162",1.4126256,103.8445853,4.9,1321,http://www.paintball.com.sg/,6659 4782,run club,"Yishun, Singapore",Others,YISHUN,9019.018663760686,65153.0,True,True,True,Local
Mini Star Club,ChIJXddgVCUX2jERS1BEKXBlMz0,"713A Ang Mo Kio Ave 6, #01-07, Singapore 561713",1.3714641,103.8465104,5.0,6,https://www.ministarclub.com/,,run club,"Ang Mo Kio, Singapore",Others,ANG MO KIO,9398.25493644068,47200.0,True,False,True,Local
Bishan parkrun,ChIJVwhkrgYX2jERROVcFRNk_ag,"Bishan-Ang Mo Kio Park, 1380 Ang Mo Kio Ave 1, Singapore 569931",1.3608105,103.850295,5.0,12,https://www.parkrun.sg/bishan/,,run club,"Ang Mo Kio, Singapore",Others,BISHAN,12483.410944381014,24524.0,True,False,True,Local
Kebun Baru Community Club,ChIJq6qqmoIZ2jER48d5nbUw7hA,"216 Ang Mo Kio Ave 4, Singapore 569897",1.3730489,103.8375807,4.3,797,https://www.onepa.gov.sg/cc/kebun-baru-cc,6457 7379,run club,"Ang Mo Kio, Singapore",Others,ANG MO KIO,9398.25493644068,47200.0,True,True,True,Local
Bishan Sports Centre Sheltered Carpark (Table Tennis),ChIJe8U2XW0X2jERuQHqruy6eqQ,"5 Bishan St 14, Bishan ActiveSG Sports Hall, Singapore 579783",1.3558491,103.8508425,4.5,11,,,run club,"Ang Mo Kio, Singapore",Others,BISHAN,12483.410944381014,24524.0,False,False,True,Local
Good Speed Cyber Cafe (Good Speed Game Cafe),ChIJN1g96-YW2jEREbzkXKJL4Q8,"710A Ang Mo Kio Ave 8, #02-2625, Singapore 561710",1.3706691,103.8482921,4.1,205,https://www.facebook.com/goodspeedgamecafe/,6455 2595,run club,"Ang Mo Kio, Singapore",Others,ANG MO KIO,9398.25493644068,47200.0,True,True,True,Local
Toa Payoh Sensory Park,ChIJq_PqmmUX2jER3ERXUQ2FTyw,"Lor. 5 Toa Payoh, Singapore",1.3351968,103.8528848,3.9,240,,,run club,"Toa Payoh, Singapore",Others,TOA PAYOH,10071.888371896875,35569.0,False,False,True,Local
The Serangoon Community Club,ChIJ53wZNFEW2jERdlyymTEEgn0,"10 Serangoon North Ave. 2, Singapore 555877",1.370095,103.8739817,4.2,1078,,6285 8833,run club,"Serangoon, Singapore",Others,SERANGOON,12015.227503718394,32272.0,False,True,True,Local
Braddell Heights Community Club,ChIJV-vzmikX2jERtLf26OLoYN8,"50 Serangoon Ave 2, #01-02, Singapore 556129",1.3517585,103.870424,4.2,53,,6288 1258,run club,"Serangoon, Singapore",Others,SERANGOON,12015.227503718394,32272.0,False,True,True,Local
Gardens by the Nim,ChIJr0tmP_kX2jERa9RpOP_FRPo,"34 Nim Terrace, Singapore 804397",1.3787202,103.8637289,4.8,4,https://www.nparks.gov.sg/contact-us,,run club,"Serangoon, Singapore",Others,SERANGOON,12015.227503718394,32272.0,True,False,True,Local
Hougang United Football Club,ChIJAQAAREkW2jERBnTbMERvyDs,"100 Hougang Ave 2, Singapore 538856",1.3695122,103.8859837,4.0,15,http://www.hgfc.com.sg/,6385 5667,run club,"Hougang, Singapore",Others,HOUGANG,10153.063186096142,65133.0,True,True,True,Local
Ci Yuan Community Club,ChIJWzXCpUUW2jERt2u2OJN48A8,"51 Hougang Ave 9, Singapore 538776",1.3753132,103.8830423,4.2,3383,,6386 3717,run club,"Hougang, Singapore",Others,SENGKANG,10549.841220784238,72478.0,False,True,True,Local
BE a Champ Badminton Academy,ChIJPfvyNLoX2jERxMqmZ8kHxkE,"139 Lor Ah Soo, Block 139, Singapore 530139",1.352196,103.884214,4.7,27,https://www.beachampbadminton.com.sg/,9640 4603,run club,"Hougang, Singapore",Others,HOUGANG,10153.063186096142,65133.0,True,True,True,Local
Marina Country Club,ChIJd1HLIOwV2jERZt3u3fAKhUk,"11 Northshore Dr, Singapore 828670",1.4152492,103.8990868,4.1,1262,http://www.marinacountryclub.com.sg/,6385 6166,run club,"Punggol, Singapore",Others,PUNGGOL,10475.132530236871,51758.0,True,True,True,Local
Punggol 21 Community Club,ChIJrWIzRwIW2jERGPDNu6ftpCg,"80 Punggol Fld, #01-01, Singapore 828815",1.3934992,103.9135328,4.2,1088,https://www.facebook.com/share/1CHVuaKxnZ/?mibextid=wwXIfr,6312 0508,run club,"Punggol, Singapore",Others,PUNGGOL,10475.132530236871,51758.0,True,True,True,Local
Punggol Community Club,ChIJxZko9l0X2jERxiYyThifaTs,"3 Hougang Ave 6, Singapore 538808",1.3741731,103.8920413,4.3,77,https://www.onepa.gov.sg/cc/punggol-cc,6387 1833,run club,"Punggol, Singapore",Others,HOUGANG,10153.063186096142,65133.0,True,True,True,Local
Dog Run @ Punggol Waterway Park,ChIJS2H_43QV2jERrkV4OxdGRyA,"Punggol waterway park, Singapore 821313",1.4119583,103.9018672,4.1,36,,,run club,"Punggol, Singapore",Others,PUNGGOL,10475.132530236871,51758.0,False,False,True,Local
Punggol Gardens Residents' Committee,ChIJvfL9u_g92jER50-q3zQ6g_A,"163A Punggol Central, #01-177 Punggol Gardens, Singapore 821163",1.395511,103.9140679,4.5,8,https://www.onepa.gov.sg/rc/punggol-gardens-rc,,run club,"Punggol, Singapore",Others,PUNGGOL,10475.132530236871,51758.0,True,False,True,Local
Sengkang Community Club,ChIJRVcadg0W2jERQLUnN_6QBCw,"2 Sengkang Square, #01-01, Singapore 545025",1.3927683,103.8940302,4.2,1516,,6312 5400,run club,"Sengkang, Singapore",Others,SENGKANG,10549.841220784238,72478.0,False,True,True,Local
Buangkok Community Club,ChIJIdwUCbIX2jER8aXD-W7o8cQ,Singapore 544692,1.3824128,103.8926877,3.6,45,http://onepa.gov.sg/cc/buangkok-cc,6830 2340,run club,"Sengkang, Singapore",Others,SENGKANG,10549.841220784238,72478.0,True,True,True,Local
Singpadel Padel Club,ChIJXayTXpcR2jEROL8mIna8NKk,"2 Jurong Gateway Rd, #01-14, JPG 608512",1.3369815,103.7461061,4.6,64,https://www.singpadel.com/,8402 3899,run club,"Jurong East, Singapore",Others,BUKIT BATOK,10063.376106008258,47468.0,True,True,True,Local
Jurong Football Club,ChIJa2nb2g0Q2jERB79hCBYR9BA,"2 Jurong East Street 21, Singapore 609601",1.334938,103.746872,0.0,0,https://www.jurongfc.com/,6566 5360,run club,"Jurong East, Singapore",Others,BUKIT BATOK,10063.376106008258,47468.0,True,True,False,Local
Nike Unite Store - IMM,ChIJ9bEj2g0Q2jER0_B4YWaCsBA,"2 Jurong East Street 21, #02 - 50 IMM Building, Singapore 609601",1.3345514,103.7465087,4.4,1436,https://www.nike.com/sg/retail/s/nike-factory-store-imm?cp=72178864724_seo_&y_source=1_MTgyNDA0NDItNzE1LWxvY2F0aW9uLndlYnNpdGU%3D,6896 2694,run club,"Jurong East, Singapore",Others,BUKIT BATOK,10063.376106008258,47468.0,True,True,True,Local
Clique Billiards (Pool Hall),ChIJU4k73wkZ2jERn8d3tpmv7sQ,"333 Boon Lay Wy, #4A-01, Singapore 649848",1.3348951,103.7058245,4.1,114,https://cliquesg.com/,8900 0857,run club,"Jurong East, Singapore",Others,JURONG WEST,9632.399985216842,74409.0,True,True,True,Local
Nanyang Community Club,ChIJD_-PvpkP2jERktfCAIHvzXg,"60 Jurong West Street 91, Singapore 649040",1.3423866,103.6922819,4.3,1136,https://www.onepa.gov.sg/,6791 0395,run club,"Jurong West, Singapore",Others,JURONG WEST,9632.399985216842,74409.0,True,True,True,Local
Hilltop Garden Restaurant,ChIJMduSTzgQ2jEROj60t5-zEL8,"91 Bukit Batok West Ave 2, Singapore 659206",1.3525875,103.7494101,3.5,138,http://www.qianxi.com.sg/,6316 5500,run club,"Bukit Batok, Singapore",Others,BUKIT BATOK,10063.376106008258,47468.0,True,True,True,Local
Bukit Panjang Community Garden,ChIJncVYCggR2jER6ksrmuJgvpU,"210 Petir Rd, Block 210, Singapore 670210",1.3739006,103.7765232,4.3,9,https://www.nparks.gov.sg/contact-us,,run club,"Bukit Batok, Singapore",Others,BUKIT PANJANG,10223.16462037638,38525.0,True,False,True,Local
Aze Badminton Academy,ChIJzZb6AiMX2jERBjmdppl5PZk,"2 Dairy Farm Ln, Singapore 677621",1.3654712,103.7732716,4.9,107,http://www.azebadmintonacademy.com/,9469 1717,run club,"Bukit Panjang, Singapore",Others,BUKIT PANJANG,10223.16462037638,38525.0,True,True,True,Local
Keppel Club,ChIJ2QdCQegb2jERpeuye8JoFDw,"239 Sime Rd, Singapore 289685",1.3416815,103.8110618,4.4,1849,http://www.keppelclub.com.sg/,6375 5567,run club,"Bukit Panjang, Singapore",Others,CENTRAL WATER CATCHMENT,0.0,0.0,True,True,True,Local
Kim San Leng Food Centre Bukit Panjang,ChIJByKUI6cR2jER4lOR_DjfH1g,"259 Bukit Panjang Ring Rd, #01-36, Singapore 670259",1.3770278,103.773481,3.8,1650,http://kimsanleng.org/,6694 4429,run club,"Bukit Panjang, Singapore",Others,BUKIT PANJANG,10223.16462037638,38525.0,True,True,True,Local
"The Yard Bukit Timah (Level B1, KAP Mall)",ChIJEQhqoWQR2jERhsZ_IQjhNOc,"9 King Albert Park, B1-01 KAP Mall, Singapore 598332",1.3367197,103.7790983,4.8,18,http://theyard.sg/bukittimah,6914 9669,run club,"Bukit Panjang, Singapore",Others,BUKIT TIMAH,15710.218884329815,20472.0,True,True,True,Local
NTUC Club Clubhouse @ Choa Chu Kang Centre,ChIJ_zZn6RYR2jER4kmR46jqkqQ,"309 Choa Chu Kang Ave 4, Level 3, Centre 680309",1.3851432,103.7457512,2.7,10,https://www.ntucclub.com/our-brands/lifestyle/ntuc-club-clubhouses,6765 9433,run club,"Choa Chu Kang, Singapore",Others,CHOA CHU KANG,10535.758835482462,52657.0,True,True,True,Local
Warren Golf & Country Club,ChIJ8bz5EecR2jERK5d1v4t0Lrs,"81 Choa Chu Kang Wy, Singapore 688263",1.3840505,103.7365811,4.3,1008,http://www.warren.org.sg/,6586 1245,run club,"Choa Chu Kang, Singapore",Others,CHOA CHU KANG,10535.758835482462,52657.0,True,True,True,Local
Limbang Park,ChIJ7WfiXu4R2jERSN3bZdGEu6Y,"784 Choa Chu Kang Dr, Singapore 680784",1.3904711,103.7446489,4.2,425,,,run club,"Choa Chu Kang, Singapore",Others,CHOA CHU KANG,10535.758835482462,52657.0,False,False,True,Local
Choa Chu Kang Park,ChIJRzglD-wR2jERgCmyEeAecXI,"Choa Chu Kang Dr, Singapore 688845",1.3874864,103.7474293,4.3,1838,https://www.nparks.gov.sg/gardens-parks-and-nature/parks-and-nature-reserves/choa-chu-kang-park,1800 471 7300,run club,"Choa Chu Kang, Singapore",Others,CHOA CHU KANG,10535.758835482462,52657.0,True,True,True,Local
Ngee Ann Alumni Association,ChIJ9clPpIAQ2jERRrDyDVd8L_c,"535B Clementi Rd, Blk 75 Ngee Ann Polytechnic, Singapore 599492",1.3309812,103.7754071,3.7,13,http://www.naa.org.sg/,8033 8353,run club,"Clementi, Singapore",Others,BUKIT TIMAH,15710.218884329815,20472.0,True,True,True,Local
The American Club,ChIJG0aNr_IZ2jERT1xrhlJaMck,"10 Claymore Hl, Singapore 229573",1.3084609,103.8322004,4.4,720,http://www.amclub.org.sg/,6737 3411,run club,"Clementi, Singapore",Others,ORCHARD,0.0,0.0,True,True,True,Local
Tiong Bahru Park,ChIJpwd8kn8Z2jERptmG8rTWrsI,"1 Henderson Rd, Singapore 159561",1.2869819,103.8247631,4.4,897,,,run club,"Tiong Bahru, Singapore",Others,RIVER VALLEY,15695.421208530806,3376.0,False,False,True,Local
Tiong Bahru Football Club,ChIJcf_XvnQZ2jERmbsbCk-VRMg,"101 Upper Cross Street, People’s Park Centre, #B1-18C 058357, Singapore 058357",1.285697,103.843945,4.1,9,https://tbfcsg.com/,6535 8098,run club,"Tiong Bahru, Singapore",Others,OUTRAM,9371.743688254664,5466.0,True,True,True,Local
British Sports touchtennis Academy,ChIJIe5uFQAZ2jERQl_3u_fHs4E,"51A Jalan Bukit Merah, Singapore 169548",1.2792464,103.8291622,5.0,6,https://www.britishsportsclub.com/,8202 2015,run club,"Bukit Merah, Singapore",Others,OUTRAM,9371.743688254664,5466.0,True,True,True,Local
Bianka Panova Academy,ChIJ0451Y9Eb2jERfQBHkMCiMBs,"2 Bukit Merah Central, #02-03, Singapore 159835",1.2847568,103.8138566,4.6,29,https://www.biankapanova.com/,8126 1177,run club,"Bukit Merah, Singapore",Others,BUKIT MERAH,10092.468693505003,45358.0,True,True,True,Local
The Skewer Bar,ChIJSV8QoDsY2jERVo7t067LKwM,"2 Lor 25 Geylang, Singapore 388287",1.3136604,103.8828393,4.3,770,https://theskewerbar.com/,9642 0837,run club,"Geylang, Singapore",Others,GEYLANG,9511.15418625147,34040.0,True,True,True,Local
Sri Siva Durga Temple,ChIJ3waWx3gX2jER1ewFTLu_zsk,"8 Potong Pasir Ave 2, Singapore 358362",1.331824,103.8666227,4.7,691,http://sivadurga.com/,6284 1898,run club,"Potong Pasir, Singapore",Others,TOA PAYOH,10071.888371896875,35569.0,True,True,True,Local
Barca Football Academy Singapore,ChIJd_0g2YgZ2jERQ-vOPFPy-e4,"1 Aljunied Walk, Nexus International School, Singapore 387293",1.3211367,103.8809609,4.3,36,https://www.barcaacademy.sg/,8079 6531,run club,"Aljunied, Singapore",Others,GEYLANG,9511.15418625147,34040.0,True,True,True,Local
Club HEAL @ Eunos Crescent,ChIJK-zkrTEZ2jERst3kcyJIiGI,"20 Eunos Cres, #01-2961A, Singapore 400020",1.324714,103.9031931,5.0,2,https://www.clubheal.sg/,6899 3463,run club,"Eunos, Singapore",Others,GEYLANG,9511.15418625147,34040.0,True,True,True,Local
Chinese Swimming Club,ChIJu6Cmom8Y2jERdP5dspAyYb8,"21 Amber Rd, Singapore 439870",1.3001499,103.9005439,4.4,855,http://www.chineseswimmingclub.org.sg/,6345 1221,run club,"Katong, Singapore",Others,MARINE PARADE,12828.006335837315,13179.0,True,True,True,Local
Plain as Play by The Makers' Club,ChIJtwaoxQcZ2jER37t67J7O6wE,"199A E Coast Rd, Singapore 428902",1.307289,103.9065126,5.0,31,https://www.themakersclub.sg/,8044 3254,run club,"Katong, Singapore",Others,MARINE PARADE,12828.006335837315,13179.0,True,True,True,Local
Temporary Marine Parade Community Club,ChIJ9-fAGQAZ2jERU-lS3Xe5kMo,"Block 67 Marine Dr, #01-222, Singapore 440067",1.3044467,103.9097475,0.0,0,,6346 4900,run club,"Marine Parade, Singapore",Others,MARINE PARADE,12828.006335837315,13179.0,False,True,False,Local
Dog Run @ Pasir Ris Park,ChIJ7bZAQRw92jERFS8aXVc3blE,"125 Pasir Ris Rd, Singapore 519121",1.3867936,103.9420832,3.9,24,,,run club,"Pasir Ris Park, Singapore",Others,PASIR RIS,11846.999197728956,40510.0,False,False,True,Local
Pasir Ris Park Area 4,ChIJWabVXsE92jER5C9NjLIWONI,"125 Pasir Ris Rd, Singapore 519121 Pasir Ris Rd, Singapore 519121",1.386738,103.9423035,4.5,334,,,run club,"Pasir Ris Park, Singapore",Others,PASIR RIS,11846.999197728956,40510.0,False,False,True,Local
Pasir Ris Park Connector,ChIJPaCM_rc92jERV8tCJVqWweM,"201 Pasir Ris Rd, Singapore 519147 Pasir Ris Rd, Singapore 519147",1.3819941,103.9494825,4.7,56,https://www.nparks.gov.sg/gardens-parks-and-nature/park-connector-network/pasir-ris-pc,,run club,"Pasir Ris Park, Singapore",Others,PASIR RIS,11846.999197728956,40510.0,True,False,True,Local
Campsite 1 @ Pasir Ris Park,ChIJRxbRPrU92jER9U4a_rBMjI4,"159T Jln. Loyang Besar, Singapore 506927",1.3803351,103.9596105,4.5,33,http://www.nparks.gov.sg/,,run club,"Pasir Ris Park, Singapore",Others,PASIR RIS,11846.999197728956,40510.0,True,False,True,Local
89.7 Supper Club,ChIJb9utVBY82jERm6ggS6Xn130,"5 Changi Village Rd, 5, Singapore 500005",1.3888395,103.9869143,4.1,2376,https://www.facebook.com/89.7SupperClub/,6214 1897,run club,"Changi Village, Singapore",Others,CHANGI,0.0,0.0,True,True,True,Local
Al Capone's Changi Civil Service Club,ChIJkfnoZBA92jERaKWzokgWl2c,"2 Netheravon Rd, Singapore 508503",1.3914938,103.9857633,4.5,111,http://www.alcaponesg.com/,8750 8781,run club,"Changi Village, Singapore",Others,CHANGI,0.0,0.0,True,True,True,Local
The Bark Cafe,ChIJ_TyD6vc82jERTi4z_YRalVg,"1000 Upper Changi Rd N, Singapore 507707",1.3622362,103.9738262,4.1,1267,,8281 2125,run club,"Changi Village, Singapore",Others,CHANGI,0.0,0.0,False,True,True,Local
Rumours Beach Club,ChIJq6qq3_gb2jERR3TAOKZPK6I,"40 Siloso Bch Walk, Sentosa, Singapore 098996",1.2540185,103.814562,4.1,1664,http://www.rumoursbeach.club/,9776 9190,run club,"Sentosa, Singapore",Others,SOUTHERN ISLANDS,0.0,0.0,True,True,True,Local
"Bikini Bar - Beachfront Bar on Siloso Beach, Sentosa",ChIJ4fVxTf8b2jER-wnDh8Sxov0,"50 Siloso Bch Walk, #01-01, Singapore 099000",1.2525685,103.8158124,4.1,892,http://www.bikinibar.sg/,,run club,"Sentosa, Singapore",Others,SOUTHERN ISLANDS,0.0,0.0,True,False,True,Local
Summerhouse Beach Club,ChIJhZUCmfcb2jERA9rt0naPQ_4,"Siloso Beach, 30 Siloso Bch Walk, 30, Singapore 099011",1.2551392,103.813362,4.0,87,https://www.skyparksentosa.com/restaurants,6911 3070,run club,"Sentosa, Singapore",Others,SOUTHERN ISLANDS,0.0,0.0,True,True,True,Local
Casino Royale Bar,ChIJr6qqqq0e2jERXHzJRFzgeiE,"8 Sentosa Gateway, Singapore 098269",1.2560732,103.8202719,4.3,405,,,run club,"Sentosa, Singapore",Others,SOUTHERN ISLANDS,0.0,0.0,False,False,True,Local
ClubWOA Dining Room & Aviators' Lounge,ChIJAQDAFs0V2jER-eSkyfNzlM8,"66 Seletar Aerospace View, Level 3 Aviation Hangar66, WOA 797509",1.4123242,103.8697261,4.8,73,,8692 9895,run club,"Pulau Seletar, Singapore",Others,SELETAR,0.0,0.0,False,True,True,Local
Republic of Singapore Flying Club,ChIJma5ByDQU2jERVUOm703olFw,"700 W Camp Rd, Unit 05-01, Singapore 797649",1.4203894,103.8640637,4.2,5,http://www.singaporeflyingclub.com/,6481 0200,run club,"Pulau Seletar, Singapore",Yoga/Pilates Studio,SELETAR,0.0,0.0,True,True,True,Local
Lower Seletar Reservoir Park,ChIJ____rBoU2jERyE5AP5-iwrc,"Yishun Ave 1, Lower Seletar Reservoir Park, Singapore 769139",1.4101641,103.8324319,4.5,2452,,1800 471 7300,run club,"Pulau Seletar, Singapore",Others,YISHUN,9019.018663760686,65153.0,False,True,True,Local
Upper Seletar Reservoir Park,ChIJcRNpHFwR2jERYHKod6yVMM0,"Mandai Rd Track 7, Singapore",1.3998531,103.8069379,4.6,1389,,,run club,"Pulau Seletar, Singapore",Others,MANDAI,0.0,0.0,False,False,True,Local
Seletar Bowl @ Seletar Country Club,ChIJ4axz90YV2jERZczxFfUB1yo,"101 Seletar Club Rd, Sports Complex, Singapore 798273",1.409828,103.8591276,5.0,2,https://www.seletarclub.com.sg/sports_social/bowling/,6486 0853,run club,"Pulau Seletar, Singapore",Others,SELETAR,0.0,0.0,True,True,True,Local
Tanglin Arts Studio,ChIJPWu1u5kQ2jERWvXXU6lV4Qc,"22 Camden Park, Hollandse Club, Singapore 299814",1.330031,103.816455,4.8,69,http://www.tanglinartsstudio.com/,8123 6770,dance studio,Singapore,Fitness Studio,NOVENA,12399.320787338742,15038.0,True,True,True,General
Soul of Art Academy,ChIJhz5NPHcZ2jER6FrnTCgZ7Dg,"341a Beach Rd, Singapore 199567",1.3015146,103.8614138,4.1,9,,9119 4206,dance studio,"Kampong Glam, Singapore",Fitness Studio,ROCHOR,0.0,0.0,False,True,True,Local
ART AND ARTIST Indian classical School of fine arts(ANASFA) Tampines,ChIJZ11Cu0k92jERYA4fJyMAJ7E,"01 Tampines Central 6, #08 5, Singapore 529482",1.353279,103.9418625,4.5,13,https://www.anasfa.com/,9653 0553,dance studio,"Tampines, Singapore",Fitness Studio,PASIR RIS,11846.999197728956,40510.0,True,True,True,Local
DF Academy @ Jurong East,ChIJ7bL6qA8Q2jERvD_Uy_MPcXw,"3 #04-13 Gateway Dr, Westgate, Singapore 608532",1.3341684,103.7430216,4.9,322,http://www.dfacademy.com.sg/,8717 8869,dance studio,"Woodlands, Singapore",Fitness Studio,BUKIT BATOK,10063.376106008258,47468.0,True,True,True,Local
DF Academy @ Yishun,ChIJI57o1DoV2jERCRk2t8pxBcE,"930 Yishun Ave 2, Singapore 769098",1.4293356,103.8360944,5.0,1,http://www.dfacademy.com.sg/,8717 8869,dance studio,"Yishun, Singapore",Fitness Studio,YISHUN,9019.018663760686,65153.0,True,True,True,Local
Kidz Education City (KEC),ChIJjWOK5H0V2jERooIYPCOXcsE,"2 Yishun Walk, #04-06 HomeTeamNS Khatib, Singapore 767944",1.4145727,103.8306592,4.9,76,https://www.kecity.com.sg/,6721 3388,dance studio,"Yishun, Singapore",Fitness Studio,YISHUN,9019.018663760686,65153.0,True,True,True,Local
The Little Arts Academy Campus I,ChIJ1ZAIkrwZ2jERzdUhlBcZxm0,"930 Yishun Ave 2, #03-38, Singapore 769098",1.4292459,103.8360894,4.3,9,http://www.thelittleartsacademy.sg/,6513 3013,dance studio,"Yishun, Singapore",Fitness Studio,YISHUN,9019.018663760686,65153.0,True,True,True,Local
DF Academy @ Ang Mo Kio,ChIJgUCAlucW2jERUsnshwEwI6s,"4190 Ang Mo Kio Ave 6, #03-02, Singapore 569841",1.3719263,103.8460738,4.9,99,http://www.dfacademy.com.sg/,8687 8341,dance studio,"Yishun, Singapore",Fitness Studio,ANG MO KIO,9398.25493644068,47200.0,True,True,True,Local
Sylvia Mccully School Of Dancing,ChIJN0cGKDAX2jERt79iiU6MFr0,"301 Upper Thomson Rd, #03-21/22, Singapore 574408",1.3548791,103.8308643,4.7,6,https://www.thomsonplaza.com.sg/stores/sylvia-mccully-school-of-dancing/,6457 6995,dance studio,"Bishan, Singapore",Fitness Studio,BISHAN,12483.410944381014,24524.0,True,True,True,Local
Distinct Creative Arts,ChIJR2zilo4X2jERyrSY01n-TFs,"206 Hougang St 21, Singapore 530206",1.3584053,103.8853847,0.0,0,https://www.distinctcreativearts.com.sg/,8157 2184,dance studio,"Hougang, Singapore",Fitness Studio,HOUGANG,10153.063186096142,65133.0,True,True,False,Local
Noooice! Academy,ChIJT1TAMOIZ2jERjWB31h5bp-c,"14 Arumugam Rd, #02-07 LTC Building C, Singapore 409959",1.3247645,103.8915885,5.0,56,http://www.noooice.com/,8824 0844,dance studio,"Hougang, Singapore",Fitness Studio,GEYLANG,9511.15418625147,34040.0,True,True,True,Local
Sarva Fine Arts - Sengkang,ChIJ25279VUX2jERUl2EesHD2-A,"10 Sengkang Central (Next to Buangkok MRT; beneath, Grand Mall, Singapore 545061",1.3822924,103.8928309,4.8,5,https://sarvafinearts.com/,8509 4123,dance studio,"Sengkang, Singapore",Fitness Studio,SENGKANG,10549.841220784238,72478.0,True,True,True,Local
Bharathi Natyakala Academy,ChIJFZhr-r4X2jEReQVAgg77nJA,"302C Anchorvale Link, 302C, Singapore 543302",1.3881736,103.8903164,0.0,0,http://www.natyakala.info/,9189 0270,dance studio,"Sengkang, Singapore",Fitness Studio,SENGKANG,10549.841220784238,72478.0,True,True,False,Local
"Sakthi Fine Arts, Sengkang",ChIJhTVwzWIX2jERMTWUosR9h4c,"180C Rivervale Cres, #01-367, Singapore 543180",1.3895416,103.9096411,3.0,2,https://sakthifinearts.com/,8117 9571,dance studio,"Sengkang, Singapore",Fitness Studio,PUNGGOL,10475.132530236871,51758.0,True,True,True,Local
Liberal Music & Arts School (Jurong West),ChIJK_KVLXMZ2jERKKIIjf0sLCs,"Blk 492 Jurong West Street 41, #01-10, Singapore 640492",1.3492641,103.7254171,4.5,33,https://liberalmusicschool.com/,6562 5661,dance studio,"Jurong East, Singapore",Fitness Studio,TENGAH,0.0,0.0,True,True,True,Local
Seetharam Arts (Bharatanatyam & Carnatic Vocal Class),ChIJ14Z-pZ4P2jERPu2YhB_6vJo,"428 Jurong West Ave 1, #01-244, Singapore 640428",1.351602,103.7253679,4.9,51,http://www.seetharamarts.com/,8498 2829,dance studio,"Jurong West, Singapore",Fitness Studio,TENGAH,0.0,0.0,True,True,True,Local
Attitude Performing Arts Studio,ChIJ3dARAokQ2jERdgrbEnrSTG8,"1 Jalan Anak Bukit, #01-29, Singapore 588998",1.3390906,103.7787333,4.3,52,https://attitudearts.com/,6467 9738,dance studio,"Bukit Batok, Singapore",Fitness Studio,BUKIT TIMAH,15710.218884329815,20472.0,True,True,True,Local
Liberal Music & Arts School (Bukit Batok),ChIJ0-8ZS_0R2jERbsTcbQm3gOs,"4 Bukit Batok Street 41, #01-83 Le Quest Shopping Mall, Singapore 657991",1.3564739,103.7406716,4.8,31,http://www.liberalmusicschool.com/,6258 5661,dance studio,"Bukit Batok, Singapore",Fitness Studio,TENGAH,0.0,0.0,True,True,True,Local
Distinct Creative Arts,ChIJo2iaHDoW2jER4Ufej-24geo,"11 Tanjong Katong Rd, #02-25/26, Singapore 436950",1.3149868,103.8946433,4.8,45,,8157 2184,dance studio,"Katong, Singapore",Fitness Studio,GEYLANG,9511.15418625147,34040.0,False,True,True,Local
Nee Soon South Community Club,ChIJq6qqmhEU2jER0yE06FDEo-U,"30 Yishun Street 81, Singapore 768455",1.4149934,103.8348043,4.1,328,https://www.onepa.gov.sg/,6753 3121,Zumba,"Yishun, Singapore",Dance Studio,YISHUN,9019.018663760686,65153.0,True,True,True,Local
Toastmasters Club at Toa Payoh Central CC,ChIJn_jTdGYX2jERiaGsaLpEkaQ,"93 Toa Payoh Central, #03-03, Singapore 319194",1.3348943,103.8504325,4.0,271,https://fb.com/tpctmc,6252 1249,Zumba,"Toa Payoh, Singapore",Dance Studio,TOA PAYOH,10071.888371896875,35569.0,True,True,True,Local
The Frontier Community Club,ChIJd4ldQJMP2jERlQdLPkzVa4A,"60 Jurong West Central 3, #01-01 The Frontier Community Place, Singapore 648346",1.3402124,103.7042859,4.2,473,,6795 8229,Zumba,"Jurong West, Singapore",Dance Studio,JURONG WEST,9632.399985216842,74409.0,False,True,True,Local
